originalPlace	interpretedPlace	longitude	latitude	xmin	xmax	ymin	ymax	uncertainty
'Abitibi Paper Company', 'Sault Sainte Marie, Canada'	Sault Ste. Marie, ON, Canada	-84.3357526	46.5136494	-84.6216575	-84.2259495	46.4528611	46.61062	13678
'Academia Sinica and State Planning Commission, Commission for Integrated Survey of Natural Resources', 'Beijing, China'	Beijing, China	116.4073963	39.9041999	115.4234112	117.514625	39.442758	41.0608157	98753
'Academia Sinica Institute of Oceanology', 'China'	No. 128號, Section 2, Academia Rd, Nangang District, Taipei City, Taiwan 11529	121.6145477	25.0421852	121.6131987	121.6158967	25.0408362	25.0435342	202
'Academia Sinica Institute of Zoology, Taipei', 'Taiwan'	NA	NA	NA	NA	NA	NA	NA	NA
'Academia Sinica, Institute of Botany', 'Shanghai, China'	No. 128號, Section 2, Academia Rd, Nangang District, Taipei City, Taiwan 11529	121.6145477	25.0421852	121.6131987	121.6158967	25.0408362	25.0435342	202
'Academia Sinica, Institute of Botany', 'Shanghai, China'	Shanghai, China	121.4737021	31.2303904	120.8397067	122.2471487	30.6755932	31.8727163	86332
'Academie imperial des Sciences', 'France'	23 Quai de Conti, 75006 Paris, France	2.3368827	48.8572759	2.3355337	2.3382317	48.8559269	48.8586249	180
'Academy of Military Medical Sciences', 'Beijing, China'	Beijing, China	116.4073963	39.9041999	115.4234112	117.514625	39.442758	41.0608157	98753
'Academy of Military Medical Sciences, Institute of Pharmacology and Toxicology', 'Beijing, China'	Beijing, China	116.4073963	39.9041999	115.4234112	117.514625	39.442758	41.0608157	98753
'Academy of Sciences  of the Republic of Uzbekistan institute of the Gene pool of plants and Animals', 'Tashkent, Uzbekistan'	70, Тошкент 100047, Uzbekistan	69.2865385	41.3065619	69.2851895	69.2878875	41.3052129	41.3079109	188
'Academy of Sciences, Zoological Institute', 'Russia'	University Embankment, 1, Sankt-Peterburg, Russia, 199034	30.3054559	59.942373	30.3041069	30.3068049	59.941024	59.943722	168
'Aegean Agricultural Research Institute', 'Izmir, Turkey'	Camikebir Mah., Çavuşköyyolu Sokak, No:9, 35660, Turkey	27.042465	38.625438	27.041116	27.043814	38.624089	38.626787	190
'Aegean Agricultural Research Institute, Department of Plant Genetic Resources', 'Izmir, Turkey'	Izmir, İzmir, Turkey	27.142826	38.423734	26.8549491	27.304485	38.290113	38.5452371	19516
'African Centre for DNA Barcoding', 'Johannesburg, South Africa'	Johannesburg, South Africa	28.0473051	-26.2041028	27.942449	28.1376001	-26.2389231	-26.1041199	11166
'Agence Prive d'Expertise et de Conseils pour le Dveloppement Inclusif (APECDI)', 'Abomey-Calavi, Benin'	NA	NA	NA	NA	NA	NA	NA	NA
'Agricultural Academy', 'Poznan, Poland'	Dojazd 11, 60-637 Poznań, Poland	16.9004381	52.432601	16.8990891	16.9017871	52.431252	52.43395	176
'Agricultural Development and Advisory Service', 'Harpenden, United Kingdom'	Harpenden AL5, UK	-0.358953	51.81846	-0.4103263	-0.3139465	51.7901681	51.8356807	3647
'Agricultural Experiment Station', 'Lviv, Ukraine'	Hamblen Ave, Fayetteville, AR 72704, USA	-94.1788816	36.0991517	-94.1802306	-94.1775326	36.0978027	36.1005007	193
'Agricultural Experiment Station', 'Lviv, Ukraine'	1232 240th Ave, Hays, KS 67601, USA	-99.3353861	38.858672	-99.3367351	-99.3340371	38.857323	38.860021	190
'Agricultural Research Centre', 'Tikkurila, Finland'	Tikkurila, 01300 Vantaa, Finland	25.0376944	60.2932539	25.021687	25.0537018	60.287724	60.2987829	1078
'Agricultural Research Centre, Plant Pathology Department', 'Tikkurila, Finland'	Tikkurila, 01300 Vantaa, Finland	25.0376944	60.2932539	25.021687	25.0537018	60.287724	60.2987829	1078
'Agricultural Science Institute of North-Central Vietnam', 'Vietnam'	NA	NA	NA	NA	NA	NA	NA	NA
'Agricultural Scientific Collections Unit', 'Orange, Australia'	Orange NSW 2800, Australia	149.1	-33.283333	148.9657788	149.1577478	-33.3379134	-33.1641714	13888
'Agriculture Canada Research Station', 'Canada'	NA	NA	NA	NA	NA	NA	NA	NA
'Agrupamento de Biotecnologia, Culture Collection of Microorganisms', 'Brazil'	NA	NA	NA	NA	NA	NA	NA	NA
'AHU Culture Collection', 'Japan'	NA	NA	NA	NA	NA	NA	NA	NA
'Albertson College, Museum of Natural History', 'United States'	Caldwell, ID 83605, USA	-116.6776926	43.6529473	-116.6790416	-116.6763436	43.6515983	43.6542963	185
'Alemaya University of Agriculture, Plant Sciences', 'Dire Dawa, Ethiopia'	East Harerge, Ethiopia	42.034531200000004	9.4082912	42.0331822	42.0358802	9.4069422	9.4096402	210
'Alexander Herzen Pedagogical University', 'Saint Petersburg, Russia'	embankment river Moyka, 48, Sankt-Peterburg, Russia, 191186	30.3197577	59.9353367	30.3184087	30.3211067	59.9339877	59.9366857	168
'Alexander Herzen Pedagogical University, Faculty of Biology, Department of Botany', 'Saint Petersburg, Russia'	St Petersburg, Russia	30.3350986	59.9342802	29.4464432	30.7349362	59.6468681	60.233527	40085
'Algal Culture Collection', 'Philippines'	Univesity of the Philippines - Los Banos College, Los Banos, Laguna, Philippines	121.2606401	14.1507251	121.2592911	121.2619891	14.1493761	14.1520741	209
'ALGOBANK', 'France'	France	2.213749	46.227638	-5.5591	9.6624999	41.31433	51.1241999	772195
'Algotheque du Laboratoire de Cryptogamie', 'France'	France	2.213749	46.227638	-5.5591	9.6624999	41.31433	51.1241999	772195
'All-Russian Research Institute of Medicinal and Aromatic Plants', 'Moscow, Russia'	Moscow, Russia	37.6172999	55.755826	36.8032249	37.9678221	55.142591	56.0214609	36821
'All-Russian Research Institute of Medicinal and Aromatic Plants, Russian Academy of Agriculture', 'Moscow, Russia'	Moscow, Russia	37.6172999	55.755826	36.8032249	37.9678221	55.142591	56.0214609	36821
'All-Russian Research Institute of Plant Protection', 'Saint Petersburg, Russia'	Bol'shaya Morskaya Ulitsa, 42-44, Sankt-Peterburg, Russia, 190000	30.3067866	59.9319474	30.3054376	30.3081356	59.9305984	59.9332964	168
'All Saint s Church, Museum of Natural History, Colchester Borough Council', 'Colchester, United Kingdom'	66 High St, Colchester CO1 1DN, UK	0.9038805	51.8895213	0.9025315	0.9052295	51.8881723	51.8908703	177
'American Plant Life Society', 'La Jolla, United States'	La Jolla, San Diego, CA, USA	-117.2712717	32.8328112	-117.2831297	-117.2140144	32.8053774	32.939665	3239
'Amphibian Collection', 'Colombia'	NA	NA	NA	NA	NA	NA	NA	NA
'Andean Botanic Garden Project', 'Santiago, Chile'	Santiago, Santiago Metropolitan Region, Chile	-70.6692655	-33.4488897	-70.8328819	-70.4267807	-33.6741885	-33.2713874	29245
'Andong National University, School of Bioresource Science', 'Andong, South Korea'	NA	NA	NA	NA	NA	NA	NA	NA
'Animal Health Division Culture Collection', 'Australia'	NA	NA	NA	NA	NA	NA	NA	NA
'Antarctic Protistan Culture Collection (Woods Hole Oceanographic Institution)', 'United States'	NA	NA	NA	NA	NA	NA	NA	NA
'Antigua Estacion Experimental Agronomica', 'Habana, Cuba'	Antigua, Antigua and Barbuda	-61.8175207	17.0746557	-61.9062506	-61.6729244	16.9975787	17.1737597	12728
'Antigua Estacion Experimental Agronomica', 'Habana, Cuba'	Havana, Cuba	-82.3665956	23.1135925	-82.574873	-82.0911311	22.9200574	23.1813159	29191
'Antigua Estacion Experimental Agronomica, Instituto de Agronomia', 'Habana, Cuba'	Antigua, Antigua and Barbuda	-61.8175207	17.0746557	-61.9062506	-61.6729244	16.9975787	17.1737597	12728
'Antigua Estacion Experimental Agronomica, Instituto de Agronomia', 'Habana, Cuba'	Havana, Cuba	-82.3665956	23.1135925	-82.574873	-82.0911311	22.9200574	23.1813159	29191
'Aquaculture Center of Aomori Prefecture', 'Japan'	Aomori Prefecture, Japan	140.7399984	40.8243077	139.8587195	141.6830976	40.2177591	41.5562377	100566
'Arachnid Collection of Egypt', 'Egypt'	Egypt	30.802498	26.820553	24.696775	37.0569	21.9999999	31.8122	817424
'Arachnology Division, Sacred Heart College', 'Thevara, India'	Pandit Karuppan Rd, Thevara, Ernakulam, Kerala 682013, India	76.2959813	9.9392053	76.2946323	76.2973303	9.9378563	9.9405543	210
'Arbeitsgemeinschaft Heuschrecken sterreichs', 'Vienna, Austria'	NA	NA	NA	NA	NA	NA	NA	NA
'Arbroath Scientific and Natural History Society', 'Arbroath, United Kingdom'	Arbroath DD11, UK	-2.591543	56.559107	-2.6269785	-2.5474901	56.5484705	56.5782501	2480
'ARC-Plant Protection Research Institute, National Collection of Fungi: Culture Collection', 'South Africa'	South Africa	22.937506	-30.559482	16.2816999	38.2216904	-47.1313489	-22.1254239	1786358
'ARC - Arctic Research and Consulting DA', 'Valer, Norway'	NA	NA	NA	NA	NA	NA	NA	NA
'Archaeology and Palaeontology', 'Madagascar'	Madagascar	46.869107	-18.766947	42.7368	50.9985001	-26.2146	-11.4369999	924418
'Arctos', 'United States'	United States	-95.712891	37.09024	-124.39	-66.885417	18.7763	71.5388001	3452879
'Arid Zone Experimental Station', 'Almera, Spain'	NA	NA	NA	NA	NA	NA	NA	NA
'Armagh Field Naturalists Society', 'Armagh, United Kingdom'	Armagh, UK	-6.652792	54.3502798	-6.6760899	-6.62102	54.32772	54.36632	2730
'ArOBIS Centro Nacional Patagnico', 'Puerto Madryn, Argentina'	NA	NA	NA	NA	NA	NA	NA	NA
'Art Gallery and Museumtural History Department', 'Glasgow, United Kingdom'	Argyle St, Glasgow G3 8AG, UK	-4.2906039	55.8685891	-4.2919529	-4.2892549	55.8672401	55.8699381	172
'Art Gallery and Museumtural History Department', 'Glasgow, United Kingdom'	University of Glasgow, 82 Hillhead St, Glasgow G12 8QQ, UK	-4.289102	55.8730183	-4.290451	-4.287753	55.8716693	55.8743673	172
'Arthropods of Medical Importance Resource Bank', 'Seoul, South Korea'	Seoul, South Korea	126.9779692	37.566535	126.7645827	127.1835899	37.4259627	37.7017495	23551
'Ashton-under-Lyne Linnean Botanical Society', 'Ashton-Under-Lyne, United Kingdom'	Ashton-under-Lyne, UK	-2.0961077	53.4876815	-2.1273208	-2.0487786	53.4744884	53.5227962	2540
'Asian Bacterial Bank', 'South Korea'	South Korea	127.766922	35.907757	124.5863	131.1603	33.0041	38.634	426703
'Asociacin Bogotana de Ornitologa', 'Bogot DC, Colombia'	NA	NA	NA	NA	NA	NA	NA	NA
'Asociacin GAICA', 'Pasto, Colombia'	NA	NA	NA	NA	NA	NA	NA	NA
'Asociacin Ibero-macaronsica de Jardines Botnicos', 'Valencia, Spain'	NA	NA	NA	NA	NA	NA	NA	NA
'Asociacin Primatolgica Colombiana', 'Bogot DC, Colombia'	NA	NA	NA	NA	NA	NA	NA	NA
'Asociacin Selva', 'Bogot D C, Colombia'	NA	NA	NA	NA	NA	NA	NA	NA
'Association for Nature WOLF', 'Lipowa, Poland'	Lipowa, Poland	19.0939008	49.6750613	19.0633687	19.1338622	49.6623615	49.7070702	2618
'Association for the Integral Development of the Manchuela Conquense area', 'Cuenca, Spain'	NA	NA	NA	NA	NA	NA	NA	NA
'Associazione Naturalisti Forlivesi Pro Museo', 'Italy'	Italy	12.56738	41.87194	6.6267201	18.7975999	35.4897	47.092	762462
'Associazione Romana di Entomologia', 'Italy'	NA	NA	NA	NA	NA	NA	NA	NA
'Atlas survey of the Butterflies of Denmark', 'Denmark'	NA	NA	NA	NA	NA	NA	NA	NA
'ATOLep Collection', 'College Park, United States'	College Park, MD, USA	-76.93776	38.9896967	-76.965351	-76.9091469	38.971109	39.025559	3158
'Aussenstelle der Universitaet', 'Germany'	Pienner Str. 8, 01737 Tharandt, Germany	13.5812511	50.9794373	13.5799021	13.5826001	50.9780883	50.9807863	177
'Australian Antarctic Data Centre', 'Hobart, Australia'	20 Castray Esplanade, Battery Point TAS 7004, Australia	147.3357869	-42.8861436	147.3344379	147.3371359	-42.8874926	-42.8847946	186
'Australian Biological Resources Study', 'Canberra, Australia'	Canberra ACT 2601, Australia	149.1300092	-35.2809368	149.1207312	149.1376675	-35.2873252	-35.2752841	937
'Australian Collection of Microorganisms', 'Australia'	NA	NA	NA	NA	NA	NA	NA	NA
'Australian Coral Ecoregions', 'Australia'	NA	NA	NA	NA	NA	NA	NA	NA
'Australian Legume Inoculants Research Unit', 'Australia'	NA	NA	NA	NA	NA	NA	NA	NA
'Australian Mycological Panel', 'Australia'	NA	NA	NA	NA	NA	NA	NA	NA
'Australian National Insect Collection', 'Canberra City, Australia'	Canberra ACT 2601, Australia	149.1300092	-35.2809368	149.1207312	149.1376675	-35.2873252	-35.2752841	937
'Australian National Insect Collection, CSIRO Entomology', 'Australia'	NA	NA	NA	NA	NA	NA	NA	NA
'Australian National Reference Laboratory in Medical Mycology', 'Australia'	NA	NA	NA	NA	NA	NA	NA	NA
'Australian Ocean Biogeographic Information System (OBIS Australia)', 'Australia'	Australia	133.775136	-25.274398	100.0911072	166.7429167	-54.8337658	-0.6911344	4283914
'Australian Research Council', 'Australia'	NA	NA	NA	NA	NA	NA	NA	NA
'Australian Tree Seed Centre', 'Australia'	Australia	133.775136	-25.274398	100.0911072	166.7429167	-54.8337658	-0.6911344	4283914
'Austrian Center of Biological Resources and Applied Mycology', 'Austria'	NA	NA	NA	NA	NA	NA	NA	NA
'Ayurveda Regional Research Institute', 'Itanagar, India'	NA	NA	NA	NA	NA	NA	NA	NA
'Azerbaijan Geology Museum', 'Baku, Azerbaijan'	28 Mikayil Üseynov küç., Bulvar, Bakı, Azerbaijan	49.8355428	40.3597767	49.8341938	49.8368918	40.3584277	40.3611257	189
'Bacillus Genetic Stock Center', 'United States'	NA	NA	NA	NA	NA	NA	NA	NA
'Bacteria collection of National Institute of Public Health, National Medicines Institute, Poland', 'Poland'	Poland	19.145136	51.919438	14.1228641	24.1458931	49.002025	54.9054761	469905
'Bacterial Collection', 'France'	France	2.213749	46.227638	-5.5591	9.6624999	41.31433	51.1241999	772195
'Bacterial collection of Universita degli studi della basilicata, Dipartimento di Biologia', 'Italy'	Via Nazario Sauro, 85, 85100 Potenza PZ, Italy	15.8086005	40.6470849	15.8072515	15.8099495	40.6457359	40.6484339	188
'Bacterial Culture Collection', 'Belgium'	Belgium	4.469936	50.503887	2.5240999	6.4081241	49.497013	51.5051449	175816
'Bacteriology and Soil Microbiology Branch', 'Thailand'	Thailand	100.992541	15.870032	97.343396	105.636812	5.613038	20.465143	707071
'Bacteriology Branch, Plant Pathology and Microbiology Division, Department of Agricultural Science', 'Thailand'	NA	NA	NA	NA	NA	NA	NA	NA
'Bacup Natural History Society', 'Bacup, United Kingdom'	24 Yorkshire St, Bacup OL13 9AE, UK	-2.1998321	53.7039239	-2.2011811	-2.1984831	53.7025749	53.7052729	175
'Banc de dades de biodiversitat de Catalunya', 'Barcelona, Spain'	Barcelona, Spain	2.1734035	41.3850639	2.0695258	2.2280099	41.320004	41.4695761	10437
'Banco de Celulas Humanas e Animais Laboratorio de Patologia Celular e Molecular', 'Brazil'	PTX - Parque Tecnológico de Xerém - Av. Nossa Sra. das Graças, 50 - Vila Nossa Sra. das Gracas, Duque de Caxias - RJ, 25250-020, Brazil	-43.2884824	-22.5952675	-43.2898314	-43.2871334	-22.5966165	-22.5939185	204
'Banco de Fermentos Lacticos', 'Brazil'	Brazil	-51.92528	-14.235004	-73.9828169	-28.650543	-34.0891	5.2717863	3125608
'Banding Zoological Museum', 'Indonesia'	NA	NA	NA	NA	NA	NA	NA	NA
'Banff Museum, North East of Scotland Library Service Museum Service', 'Banff, United Kingdom'	NA	NA	NA	NA	NA	NA	NA	NA
'Bangkok Herbarium, Department of Agriculture, Plant Variety Protection Office', 'Bangkok, Thailand'	Bangkok, Thailand	100.5017651	13.7563309	100.3278136	100.938408	13.4940881	13.955111	34584
'Banque de Ressources Fongiques de Marseille', 'France'	Marseille, France	5.36978	43.296482	5.228641	5.5323519	43.169621	43.3911601	16864
'Barton-on-Humber Grammar School', 'Barton-On-Humber, United Kingdom'	NA	NA	NA	NA	NA	NA	NA	NA
'Basque Country University, Laboratory of Zoology', 'Spain'	Barrio Sarriena, s/n, 48940 Leioa, Bizkaia, Spain	-2.9678921	43.3309433	-2.9692411	-2.9665431	43.3295943	43.3322923	186
'Basque Government', 'Vitoria-Gasteiz, Spain'	Vitoria-Gasteiz, Álava, Spain	-2.6817918	42.8591656	-2.7226537	-2.6316625	42.8298855	42.8781884	4609
'Bath Natural History Society', 'Bath, United Kingdom'	16-18 Queen Square, Bath BA1 2HN, UK	-2.3643831	51.3832577	-2.3657321	-2.3630341	51.3819087	51.3846067	177
'Baysgarth Museum, Glanford Borough Council', 'Barton-On-Humber, United Kingdom'	Baysgarth House Museum Baysgarth Park, Caistor Rd, Barton-upon-Humber DN18 6AH, United Kingdom	-0.439042	53.680519	-0.440391	-0.437693	53.67917	53.681868	175
'BCCM/IHEM', 'Belgium'	NA	NA	NA	NA	NA	NA	NA	NA
'Bedfordshire Natural History Society', 'Bedford, United Kingdom'	Bedford, UK	-0.4666565	52.1359735	-0.6687744	-0.2407452	52.0545323	52.3229384	16552
'Bedfordshire Natural History Society', 'Bedford, United Kingdom'	Priory Country Park/Barkers La, Bedford MK41 9DJ, United Kingdom	-0.4367254	52.1324192	-0.4380744	-0.4353764	52.1310702	52.1337682	176
'Belfast Natural History and Philosophical Society', 'Belfast, United Kingdom'	Belfast, UK	-5.93012	54.597285	-6.04526	-5.8080046	54.53055	54.65921	10475
'Belfast Naturalists Field Club', 'Belfast, United Kingdom'	Belfast, UK	-5.93012	54.597285	-6.04526	-5.8080046	54.53055	54.65921	10475
'Belgian Coordinated Collections of Microorganisms / LMBP Plasmid Collection', 'Belgium'	NA	NA	NA	NA	NA	NA	NA	NA
'Belgian Coordinated Collections of Microorganisms/ LMG Bacteria Collection', 'Belgium'	NA	NA	NA	NA	NA	NA	NA	NA
'Belgium Biodiversity Platform', 'Brussels, Belgium'	NA	NA	NA	NA	NA	NA	NA	NA
'Belle Vue Museum, Central Library', 'Halifax, United Kingdom'	NA	NA	NA	NA	NA	NA	NA	NA
'Benaki Phytopathological Institute Collection', 'Greece'	NA	NA	NA	NA	NA	NA	NA	NA
'Bermuda Department of Agriculture and Fisheries', 'Bermuda'	Bermuda	-64.7505	32.3078	-64.8914	-64.6413999	32.2424975	32.3961	14190
'Bernard Price Institute for Palaeontological Research', 'South Africa'	NA	NA	NA	NA	NA	NA	NA	NA
'Bingham Oceanographic Collection', 'United States'	8622 Kennel Way, La Jolla, CA 92037, USA	-117.2503233	32.8681401	-117.2516723	-117.2489743	32.8667911	32.8694891	196
'BioCentro-UNELLEZ', 'Mesa De Cavacas, Venezuela'	NA	NA	NA	NA	NA	NA	NA	NA
'Biodiversity Data Journal', 'Sofia, Bulgaria'	Sofia, Bulgaria	23.3218675	42.6977082	23.1909885	23.4569049	42.4900111	42.7877752	14912
'Biodiversity Exploratories', 'Frankfurt am Main, Germany'	Frankfurt, Germany	8.6821267	50.1109221	8.4727299	8.8003977	50.0152145	50.2272095	15450
'BioGIS - Israel Biodiversity Website', 'Israel'	Israel	34.851612	31.046051	34.2673871	35.896244	29.4797	33.332805	182514
'Biological Control of Weeds Laboratory-Europe', 'Italy'	Italy	12.56738	41.87194	6.6267201	18.7975999	35.4897	47.092	762462
'Biological Control Research Institute', 'India'	Bellary Road, H.A. Farm Post, Hebbal, Bengaluru, Karnataka 560024, India	77.584256	13.0269902	77.582907	77.585605	13.0256412	13.0283392	209
'Biological Institute Culture Collection of Phytopathogenic Bacteria', 'Brazil'	NA	NA	NA	NA	NA	NA	NA	NA
'Biological Institute Titograd', 'NA'	Podgorica, Montenegro	19.2593642	42.4304196	19.1815065	19.3302512	42.368358	42.4956435	9300
'Biological Nitrogen Fixation Project College of Agriculture', 'India'	India	78.96288	20.593684	68.1097	97.3953587	6.4626999	35.513327	1953528
'Biological Science Museum at Faculaty of Science', 'Chiang Mai, Thailand'	239 Huaykaew Rd, Tambon Su Thep, Amphoe Mueang Chiang Mai, Chang Wat Chiang Mai 50200, Thailand	98.9560665	18.8015836	98.9547175	98.9574155	18.8002346	18.8029326	206
'Biological Science Museum at Faculaty of Science', 'Chiang Mai, Thailand'	Su Thep, Mueang Chiang Mai District, Chiang Mai 50200, Thailand	98.9500373	18.8027247	98.9486883	98.9513863	18.8013757	18.8040737	206
'Biological Sciences', 'Zimbabwe'	630 Churchill Avenue, Harare, Zimbabwe	31.054561	-17.784983	31.053212	31.05591	-17.786332	-17.783634	207
'Biological Station Reference Museum at Porto Novo', 'India'	Parangipettai, Tamil Nadu, India	79.7568107	11.5084474	79.7394266	79.7733267	11.4814921	11.5295877	2952
'Biological Survey of Canada', 'Ottawa, Canada'	Ottawa, ON, Canada	-75.6971931	45.4215296	-76.3539159	-75.2465979	44.962733	45.5375801	37517
'Biologicky Ustav', 'Czechia'	Branišovská 1160/31, 370 05 České Budějovice, Czechia	14.447845	48.9775292	14.446496	14.449194	48.9761802	48.9788782	180
'Biologische Anstalt Helgoland Marine Station', 'Germany'	Kurpromenade 201, 27498 Helgoland, Germany	7.88884	54.18286	7.887491	7.890189	54.181511	54.184209	174
'Biologische Anstalt Helgoland Marine Station', 'Germany'	Am Binnenhafen 1117, 27498 Helgoland, Germany	7.8903488	54.1781186	7.8889998	7.8916978	54.1767696	54.1794676	174
'Biology Centre of the Academy of Sciences of the Czech Republic, Institute of Entomology', 'Cesk Budejovice, Czechia'	NA	NA	NA	NA	NA	NA	NA	NA
'Bioresource Collection and Research Center', 'Taiwan'	No. 331號, Shipin Road, East District, Hsinchu City, Taiwan 300	120.9708299	24.7934619	120.9694809	120.9721789	24.7921129	24.7948109	202
'Biotechnology Research and Development Institute Vietnam', 'Vietnam'	18 Hoàng Quốc Việt, Nghĩa Đô, Cầu Giấy, Hà Nội, Vietnam	105.801282	21.0481227	105.799933	105.802631	21.0467737	21.0494717	205
'BirdLife Australia', 'Australia'	2-05/60 Leicester St, Carlton VIC 3053, Australia	144.9607964	-37.8049064	144.9594474	144.9621454	-37.8062554	-37.8035574	191
'Bogdan Khmel nysckyi State Pedagogical University of Melitopol , Botany Department', 'Melitopol', Ukraine'	Hetmanska St, 20, Melitopol', Zaporiz'ka oblast, Ukraine, 72300	35.3782564	46.8423281	35.3769074	35.3796054	46.8409791	46.8436771	182
'Bolton Botanical Society', 'Bolton, United Kingdom'	Martin Ford Landscapes, 66 Dixon Green Dr, Farnworth, Bolton BL4 7EQ, UK	-2.4082913	53.5503645	-2.4096403	-2.4069423	53.5490155	53.5517135	175
'Bolton Linnean Society', 'Bolton, United Kingdom'	NA	NA	NA	NA	NA	NA	NA	NA
'Boothstown Botanical Society', 'Boothstown, United Kingdom'	Boothstown, Worsley, Manchester M28, UK	-2.4148635	53.5040637	-2.4283647	-2.4066334	53.4946456	53.5075205	668
'Boston Society of Natural History', 'United States'	Boston, MA, USA	-71.0588801	42.3600825	-71.191113	-70.749455	42.22788	42.4008199	18291
'Botanical Garden, Sakhalin Complex Institute for Scientific Investigation', 'Novo-Aleksandrovsk, Russia'	Novo-Aleksandrovsk, Sakhalin Oblast, Russia	142.7266563	47.0539372	142.711298	142.748323	47.029679	47.068441	2304
'Botanical Survey of India, Andaman and Nicobar Circle', 'Port Blairs, India'	Port Blair, Andaman and Nicobar Islands, India	92.7264828	11.6233774	92.686522	92.7575674	11.546866	11.6898488	8097
'Botanical Survey of India, Deccan Regional Centre', 'Hyderabad, India'	Sai Hills Colony, Attapur, Hyderabad, Telangana 500030, India	78.4285194	17.3563009	78.4271704	78.4298684	17.3549519	17.3576499	207
'Botswana College of Agriculture', 'Gaborone, Botswana'	NA	NA	NA	NA	NA	NA	NA	NA
'Botswana Wildlife Management Association', 'Maun, Botswana'	Maun, Botswana	23.4180769	-19.9952622	23.3816529	23.456154	-20.0402891	-19.9604414	5544
'Bovine Genome Resources Bank', 'Gyeongsan-si, South Korea'	Gyeongsan-si, Gyeongsangbuk-do, South Korea	128.7415441	35.8250555	128.6804441	128.9720044	35.7000483	35.9974206	14930
'BPPT Ethanol-Single Cell Protein-Fructose Syrup Technical Unit', 'Indonesia'	NA	NA	NA	NA	NA	NA	NA	NA
'Bradford Art Galleries and Museumstural Sciences Department', 'Bradford, United Kingdom'	Lister Park, Bradford BD9 4NS, UK	-1.7718571	53.812124	-1.7732061	-1.7705081	53.810775	53.813473	174
'Braintree and Bocking Natural History Club', 'Braintree, United Kingdom'	Braintree & Bocking Public Gardens, 43 Bocking End, Braintree CM7 9AE, UK	0.553979	51.883669	0.55263	0.555328	51.88232	51.885018	177
'Brassica Resource Bank', 'Daejeon, South Korea'	Daejeon, South Korea	127.3845475	36.3504119	127.2464501	127.5590436	36.1833708	36.4999476	22306
'Brathay Field Centre for Exploration and Field Studies', 'Ambleside, United Kingdom'	Ambleside LA22, UK	-2.961333	54.428736	-2.9838907	-2.9385756	54.4162699	54.4402073	1952
'Brazilian Collection of Microorganisms from the Environment and Industry (Colecao Brasileira de Microrganismos de Ambiente e Industria)', 'Brazil'	Brazil	-51.92528	-14.235004	-73.9828169	-28.650543	-34.0891	5.2717863	3125608
'Bridge of Allan Museum', 'Bridge Of Allan, United Kingdom'	NA	NA	NA	NA	NA	NA	NA	NA
'Bristol Regional Environmental Records Centre', 'United Kingdom'	NA	NA	NA	NA	NA	NA	NA	NA
'British Bryological Society', 'United Kingdom'	United Kingdom	-3.435973	55.378051	-8.8988999	33.9165549	34.5614	60.9157	2250062
'British Geological Survey', 'United Kingdom'	NA	NA	NA	NA	NA	NA	NA	NA
'British Lichen Society', 'United Kingdom'	NA	NA	NA	NA	NA	NA	NA	NA
'Brittany Microbe Culture collection', 'France'	NA	NA	NA	NA	NA	NA	NA	NA
'Brucella Culture Collection', 'France'	France	2.213749	46.227638	-5.5591	9.6624999	41.31433	51.1241999	772195
'Brunei Museum', 'Brunei'	482 Jln Kota Batu, Kampung Kota Batu, Brunei	114.9685318	4.8818364	114.9671828	114.9698808	4.8804874	4.8831854	211
'Bulgarian Academy of Sciences', 'Sofia, Bulgaria'	"ul. ""Serdika"" 4, 1000 Sofia Center, Sofia, Bulgaria"	23.32488	42.69821	23.323531	23.326229	42.696861	42.699559	186
'Bulgarian Academy of Sciences', 'Sofia, Bulgaria'	София, ул. 15 ноември 1, Bulgaria	23.33214	42.69452	23.330791	23.333489	42.693171	42.695869	186
'Bulgarian Academy of Sciences, Institute of Biodiversity and Ecosystem Research', 'Sofia, Bulgaria'	Sofia, Bulgaria	23.3218675	42.6977082	23.1909885	23.4569049	42.4900111	42.7877752	14912
'Bulgarian Research Culture Collection', 'Bulgaria'	Bulgaria	25.48583	42.733883	22.3573446	28.7292001	41.2354469	44.2153059	308052
'Bulgarian Type Culture Collection', 'Bulgaria'	NA	NA	NA	NA	NA	NA	NA	NA
'Bundesanstalt fur Geowissenschaften und Rohstoffe', 'Germany'	NA	NA	NA	NA	NA	NA	NA	NA
'Bungay Botanical Society', 'Bungay, United Kingdom'	Bungay NR35, UK	1.443976	52.455457	1.4093763	1.4677154	52.4245821	52.4712068	2382
'Bureau of Commercial Fisheries', 'United States'	United States	-95.712891	37.09024	-124.39	-66.885417	18.7763	71.5388001	3452879
'Bureau of Mineral Resources', 'Australia'	NA	NA	NA	NA	NA	NA	NA	NA
'Bvumbwe Experiment Station', 'Malawi'	NA	NA	NA	NA	NA	NA	NA	NA
'Crculo Herpetolgico de Panam', 'Panama'	NA	NA	NA	NA	NA	NA	NA	NA
'CABI Collection', 'Richmond, United Kingdom'	NA	NA	NA	NA	NA	NA	NA	NA
'CABI Genetic Resource Collection', 'United Kingdom'	United Kingdom	-3.435973	55.378051	-8.8988999	33.9165549	34.5614	60.9157	2250062
'CAIRCC', 'Indonesia'	Indonesia	113.921327	-0.789275	94.7351	141.0425	-11.1082999	6.2169999	2408783
'California State Collection of Arthropods', 'Sacramento, United States'	Sacramento, CA, USA	-121.4943996	38.5815719	-121.56012	-121.325705	38.437574	38.685507	16981
'Cambodian Molecular Genetics Group', 'Phnom Penh, Cambodia'	Phnom Penh, Cambodia	104.9282099	11.5563738	104.7127961	105.0675774	11.422401	11.7363275	25044
'Canadian Biodiversity Information Facility', 'Canada'	Canada	-106.346771	56.130366	-142	-50	41.6765559	83.6381	3018372
'Canadian Center for the Culture of Microorganisms', 'Canada'	Canada	-106.346771	56.130366	-142	-50	41.6765559	83.6381	3018372
'Canadian Collection of Fungal Cultures', 'Ottawa, Canada'	Ottawa, ON, Canada	-75.6971931	45.4215296	-76.3539159	-75.2465979	44.962733	45.5375801	37517
'Canadian Department of Agriculture', 'Canada'	93 Stone Rd W, Guelph, ON N1G 5C9, Canada	-80.228923	43.524566	-80.230272	-80.227574	43.523217	43.525915	185
'Canadian Forest Service, NRCan', 'Canada'	NA	NA	NA	NA	NA	NA	NA	NA
'Canadian National Collection Insects', 'Canada'	NA	NA	NA	NA	NA	NA	NA	NA
'Canadian node of the Ocean Biogeographic Information System (OBIS Canada)', 'Canada'	NA	NA	NA	NA	NA	NA	NA	NA
'Canberra Ornithologists Group', 'Australia'	NA	NA	NA	NA	NA	NA	NA	NA
'Caradoc and Severn Valley Field Club', 'Shrewsbury, United Kingdom'	NA	NA	NA	NA	NA	NA	NA	NA
'Caribbean Agricultural Research Institute', 'Barbados'	NA	NA	NA	NA	NA	NA	NA	NA
'Caribbean Epidemiology Centre', 'Trinidad & Tobago'	NA	NA	NA	NA	NA	NA	NA	NA
'Carl Faust Foundation', 'Gerona, Spain'	NA	NA	NA	NA	NA	NA	NA	NA
'Caspian Biological Station Institute of Zoology', 'Azerbaijan'	Azerbaijan	47.576927	40.143105	44.7632599	50.7458001	38.3922171	41.9594999	311009
'Catedra de Zoologia Agricola', 'Argentina'	Argentina	-63.616672	-38.416097	-73.5603601	-53.637481	-55.1250224	-21.7810459	2002039
'Cattedra di Micologia', 'Roma, Italy'	NA	NA	NA	NA	NA	NA	NA	NA
'CBS Fungal Biodiversity Centre', 'Utrecht, Netherlands'	Uppsalalaan 8, 3584 CT Utrecht, Netherlands	5.1770005	52.0896802	5.1756515	5.1783495	52.0883312	52.0910292	176
'CeDoc of Plant Biodiversity (CeDocBIV), Univ. Barcelona', 'Barcelona, Spain'	Gran Via de les Corts Catalanes, 585, 08007 Barcelona, Spain	2.16402	41.386608	2.162671	2.165369	41.385259	41.387957	188
'Center for Fungal Genetic Resources', 'Seoul, South Korea'	Seoul, South Korea	126.9779692	37.566535	126.7645827	127.1835899	37.4259627	37.7017495	23551
'Center for Marine Microbial Ecology and Diversity Collection', 'United States'	NA	NA	NA	NA	NA	NA	NA	NA
'Centraalbureau voor Schimmelcultures, Fungal and Yeast Collection', 'Netherlands'	Uppsalalaan 8, 3584 CT Utrecht, Netherlands	5.1770005	52.0896802	5.1756515	5.1783495	52.0883312	52.0910292	176
'Central Experiment Station', 'Trinidad & Tobago'	Trinidad and Tobago	-61.222503	10.691803	-61.9725001	-60.4508999	9.9930001	11.4004	112790
'Central Geological Research Museum', 'Russia'	NA	NA	NA	NA	NA	NA	NA	NA
'Central Laboratories', 'Israel'	Khavatselet ha-Sharon St 37, Herzliya, Israel	34.8050593	32.1788537	34.8037103	34.8064083	32.1775047	32.1802027	196
'Central Laboratories', 'Israel'	HaPalmach St 14, Jerusalem, 92542, Israel	35.212467	31.767857	35.211118	35.213816	31.766508	31.769206	197
'Central Museum of Geological Prospecting', 'Russia'	Prospekt Akademika Koptyuga, 3, Novosibirsk, Novosibirskaya oblast', Russia, 630090	83.1052628	54.8454004	83.1039138	83.1066118	54.8440514	54.8467494	173
'Central Research Laboratories', 'Japan'	NA	NA	NA	NA	NA	NA	NA	NA
'Central Siberian Botanical Garden, Russian Academy of Sciences, Siberian Branch', 'Novosibirsk, Russia'	Tsentral'nyy Sibirskiy Botanicheskiy Sad So Ran, Zolotodolinskaya Ulitsa, 101, Novosibirsk, Novosibirskaya oblast', Russia, 630090	83.1044996	54.8207239	83.1031506	83.1058486	54.8193749	54.8220729	173
'Central Siberian Botanical Garden, Siberian Branch of Russian Academy of Sciensis', 'Novosibirsk, Russia'	NA	NA	NA	NA	NA	NA	NA	NA
'Centre d'Etude et de Recherche en Environnement (CERE)', 'Conakry, Guinea'	Conakry, Guinea	-13.6760721	9.5442259	-13.6774211	-13.6747231	9.5428769	9.5455749	210
'Centre d'Etude et de Recherche en Mdecine Traditionnelle Applique (CERMETRA)', 'Sokod, Togo'	NA	NA	NA	NA	NA	NA	NA	NA
'Centre d'Observation de Surveillance et d'Information Environnementales (COSIE)', 'Guinea'	NA	NA	NA	NA	NA	NA	NA	NA
'Centre D Etude sur les Ressources Vegetales', 'Brazzaville, Congo - Brazzaville'	Brazzaville, Republic of the Congo	15.2428853	-4.2633597	15.1371001	15.3173448	-4.3710429	-4.1233473	16724
'Centre d Historia Natural de la Conca de Barbera', 'Spain'	NA	NA	NA	NA	NA	NA	NA	NA
'Centre de Formation et de Recherche en Conservation Forestiere', 'Gombe, Congo - Kinshasa'	NA	NA	NA	NA	NA	NA	NA	NA
'Centre de Paleontologie Stratigraphique et Paleoecologie', 'France'	NA	NA	NA	NA	NA	NA	NA	NA
'Centre de Recherche de la Nature, des Forets et du Bois', 'Gembloux, Belgium'	NA	NA	NA	NA	NA	NA	NA	NA
'Centre de Recherche en Hydrobiologie', 'Congo - Kinshasa'	Democratic Republic of the Congo	21.758664	-4.038333	12.1454	31.314612	-13.4590349	5.3920029	1483847
'Centre de Recherche en Sciences Naturelles (CRSN/Lwiro)', 'Lwiro, Congo - Kinshasa'	Democratic Republic of the Congo	21.758664	-4.038333	12.1454	31.314612	-13.4590349	5.3920029	1483847
'Centre de Recherche Scientifique Conakry Rogban (CERESCOR) MESRS', 'Conakry, Guinea'	NA	NA	NA	NA	NA	NA	NA	NA
'Centre des Yersinia', 'France'	NA	NA	NA	NA	NA	NA	NA	NA
'Centre for ecology, evolution and environmental change', 'Lisbon, Portugal'	NA	NA	NA	NA	NA	NA	NA	NA
'Centre for Genetic Resources, The Netherlands', 'Netherlands'	NA	NA	NA	NA	NA	NA	NA	NA
'Centre for Research and Application of Culture Collections of Microorganisms', 'Turkey'	Turkey	35.243322	38.963745	25.5377	44.8178449	35.808592	42.3666999	892754
'Centre International de Ressources Microbiennes-Levures', 'Grignon, France'	73200 Grignon, France	6.377893	45.6511349	6.355781	6.4037731	45.62254	45.662346	2371
'Centre National de Floristique', 'Abidjan, Côte d’Ivoire'	Abidjan, Côte d'Ivoire	-4.0082563	5.3599517	-4.1240715	-3.8352585	5.2334876	5.4634126	18984
'Centre National de la Recherche Appliquee au Developement Rural', 'Antananarivo, Madagascar'	Antananarivo, Madagascar	47.5491983	-18.9059668	47.5478493	47.5505473	-18.9073158	-18.9046178	206
'Centre National de la Recherche Scientifique', 'France'	NA	NA	NA	NA	NA	NA	NA	NA
'Centre national de recherche pour le dveloppement de la pche et d'aquaculture', 'BouIsmail, Algeria'	NA	NA	NA	NA	NA	NA	NA	NA
'Centre National de Recherches Oceanographiques', 'Madagascar'	Nosy-Be, Madagascar	48.2908011	-13.4074274	48.2894521	48.2921501	-13.4087764	-13.4060784	209
'Centre National de Recherches sur l'Environnement', 'Antananarivo, Madagascar'	Rasoanaivo Cherles, Antananarivo, Madagascar	47.5245536	-18.9330468	47.5232046	47.5259026	-18.9343958	-18.9316978	206
'Centre National de Recherches Zootechniques', 'France'	NA	NA	NA	NA	NA	NA	NA	NA
'Centre of Advanced Study in Marine Biology', 'India'	Parangipettai, Tamil Nadu 608502, India	79.7659203	11.491995	79.7645713	79.7672693	11.490646	11.493344	210
'Centre of Excellence in Marine Biology', 'Pakistan'	NA	NA	NA	NA	NA	NA	NA	NA
'Centre of Industrial Microorganisms Collection', 'Poland'	NA	NA	NA	NA	NA	NA	NA	NA
'Centre Regional de Recherches en Hydrobiologie Appliquee', 'Burundi'	NA	NA	NA	NA	NA	NA	NA	NA
'Centro de Biotecnologia e Quimica-CEBIQ', 'Brazil'	NA	NA	NA	NA	NA	NA	NA	NA
'Centro de Ecologia Aplicada', 'Argentina'	NA	NA	NA	NA	NA	NA	NA	NA
'Centro de Entomologica y Acarologia', 'Mexico'	NA	NA	NA	NA	NA	NA	NA	NA
'Centro de Estudios Tropicales', 'Spain'	NA	NA	NA	NA	NA	NA	NA	NA
'Centro de Investigacao Cientifica Algodoeira', 'Maputo, Mozambique'	NA	NA	NA	NA	NA	NA	NA	NA
'Centro de Investigaciones Agricolas Nortoeste', 'Mexico'	Mexico	-102.552784	23.634501	-118.6523001	-86.5887	14.3895	32.7186534	1859572
'Centro de Investigaciones Pesqueras', 'Colombia'	Colombia	-74.297333	4.570868	-81.8317	-66.8463122	-4.2271099	13.5177999	1283943
'Centro de Investigaciones Zoologicas', 'Chile'	Chile	-71.542969	-35.675147	-110.0281	-66.3327	-56.1455	-17.4983291	2078877
'Centro de Ornitologia y Biodiversidad', 'Lima, Peru'	Av Encalada, Lima 15023, Peru	-76.9712552	-12.1116498	-76.9726042	-76.9699062	-12.1129988	-12.1103008	209
'Centro de Pesquisas Agropecuarias do Tropico Umido', 'Brazil'	Brazil	-51.92528	-14.235004	-73.9828169	-28.650543	-34.0891	5.2717863	3125608
'Centro de Pesquisas do Cacau', 'Brazil'	NA	NA	NA	NA	NA	NA	NA	NA
'Centro de Pesquisas Paleontologias Llewellyn Ivor Price', 'Brazil'	Brazil	-51.92528	-14.235004	-73.9828169	-28.650543	-34.0891	5.2717863	3125608
'Centro de Zoologia', 'Portugal'	Portugal	-8.224454	39.399872	-31.4647999	-6.1891592	32.2895	42.1543111	350803
'Centro de Zoologia do IICT', 'Portugal'	NA	NA	NA	NA	NA	NA	NA	NA
'Centro di Studio dei Microorganismi Autotrofi - CNR', 'Italy'	NA	NA	NA	NA	NA	NA	NA	NA
'Centro Experimental de Nueva Guinea', 'Nicaragua'	Nueva Guinea, Nicaragua	-84.4540213	11.6932207	-84.4682121	-84.4419479	11.6774539	11.7043499	1802
'Centro Interdipartimentale dell Universita Museo di Storia Naturale e del Territorio', 'Italy'	Via Giorgio la Pira, 4, 50121 Firenze FI, Italy	11.259864	43.7783698	11.258515	11.261213	43.7770208	43.7797188	185
'Centro Nacional de Proteccion Vegetal', 'Nicaragua'	Nicaragua	-85.207229	12.865416	-87.7588	-82.2766	10.7080549	15.0297369	366437
'Centro Oriental de Ecosistemas y Biodiversidad', 'Santiago De Cuba, Cuba'	Santiago de Cuba, Cuba	-75.8301537	20.01693	-75.8923008	-75.7598926	19.9576725	20.0909996	9238
'Centro Panamericano de Zoonosis', 'Argentina'	Argentina	-63.616672	-38.416097	-73.5603601	-53.637481	-55.1250224	-21.7810459	2002039
'Centro per gli Enterobatteri Patogeni per l Italia Meridionale', 'Italy'	South Italy, Italy	15.4068079	40.5625825	13.0184861	18.5203835	37.9157558	42.8950821	358941
'Centro Studi e Ricerche Ligabue', 'Italy'	S. Marco, 3319, 30124 Venezia VE, Italy	12.3357598	45.4361354	12.3344108	12.3371088	45.4347864	45.4374844	183
'Centro Studi e Ricerche Ligabue', 'Italy'	Viale Partigiani D'Italia, 35, 43123 Parma PR, Italy	10.3443028	44.7968263	10.3429538	10.3456518	44.7954773	44.7981753	184
'Centro Substrati Cellulari, Cell Lines Collection and Hybridomas', 'Italy'	Italy	12.56738	41.87194	6.6267201	18.7975999	35.4897	47.092	762462
'Centro Venezolano de Colecciones de Microorganismos', 'Venezuela'	NA	NA	NA	NA	NA	NA	NA	NA
'Cepario de Hongos del Instituto de Ecologia', 'Mexico'	NA	NA	NA	NA	NA	NA	NA	NA
'Cepario de la Facultad de Quimica', 'Mexico'	NA	NA	NA	NA	NA	NA	NA	NA
'CEPM- Centre d Etudes sur le Polymorphisme des Micro-organismes', 'France'	France	2.213749	46.227638	-5.5591	9.6624999	41.31433	51.1241999	772195
'Changbai Mountain National Nature Reserve Administration Bureau', 'Antu, China'	NA	NA	NA	NA	NA	NA	NA	NA
'Charles R. Conner Museum', 'Pullman, United States'	NA	NA	NA	NA	NA	NA	NA	NA
'Cheboksary Branch of the Main Botanical Garden', 'Cheboksary, Russia'	NA	NA	NA	NA	NA	NA	NA	NA
'Check List', 'Sorocaba, Brazil'	NA	NA	NA	NA	NA	NA	NA	NA
'Chernyshev Central Museum of Geological Explorations,Collections of the Department of Herpetology, Zoological Institute of the Russian Academy of Sciences', 'Russia'	University Embankment, 1, Sankt-Peterburg, Russia, 199034	30.3054559	59.942373	30.3041069	30.3068049	59.941024	59.943722	168
'Chevron Australia', 'Australia'	250 St Georges Terrace, Perth WA 6000, Australia	115.8509084	-31.9523108	115.8495594	115.8522574	-31.9536598	-31.9509618	197
'China Antibiotic Culture Collection Center', 'China'	NA	NA	NA	NA	NA	NA	NA	NA
'China Center for Industrial Culture Collection', 'China'	China	104.195397	35.86166	73.4994136	134.7754563	17.9996	53.5609739	3079916
'China Center for Type Culture Collection', 'China'	China, Hubei, Wuhan, Hongshan, 八一路	114.362755	30.532663	114.361406	114.364104	30.531314	30.534012	198
'China Center For Virus Culture Collection', 'China'	NA	NA	NA	NA	NA	NA	NA	NA
'China Centre for General Viruses Culture Collection', 'China'	China	104.195397	35.86166	73.4994136	134.7754563	17.9996	53.5609739	3079916
'China Entomological Research Institute', 'China'	China	104.195397	35.86166	73.4994136	134.7754563	17.9996	53.5609739	3079916
'China Marine Microbe Collection', 'China'	NA	NA	NA	NA	NA	NA	NA	NA
'Chinese National Waterfowl Germplasm Resources Gene Library', 'China'	China	104.195397	35.86166	73.4994136	134.7754563	17.9996	53.5609739	3079916
'Chinese University of Hong Kong, Biology Department', 'Hong Kong, China'	Pond Cres, Ma Liu Shui, Hong Kong	114.2109318	22.4162632	114.2095828	114.2122808	22.4149142	22.4176122	204
'Chinese University of Hong Kong, Biology Department', 'Hong Kong, China'	Ma Liu Shui, Hong Kong	114.2039352	22.4196819	114.2025862	114.2052842	22.4183329	22.4210309	204
'Chinzombo Research Station', 'Mfuwe, Zambia'	Zambia	27.849332	-13.133897	21.999351	33.7090305	-18.0774179	-8.2032838	832164
'Chinzombo Research Stationtional Parks and Wildlife Service, Chinzombo Wildlife Research Station', 'Mfuwe, Zambia'	Zambia	27.849332	-13.133897	21.999351	33.7090305	-18.0774179	-8.2032838	832164
'Chonlatassanasathan Museum', 'Chonburi, Thailand'	NA	NA	NA	NA	NA	NA	NA	NA
'Chulalongkorn University s Traditional Medicine Museum', 'Bangkok, Thailand'	254 Phayathai Rd, Wang Mai, Khet Pathum Wan, Krung Thep Maha Nakhon 10330, Thailand	100.5300019	13.7375088	100.5286529	100.5313509	13.7361598	13.7388578	209
'CIBIO (Institute of Biodiversity), Univ. Alicante', 'Alicante, Spain'	Carretera de San Vicente del Raspeig, 03690 San Vicente del Raspeig, Alicante, Spain	-0.5139291	38.3845089	-0.5152781	-0.5125801	38.3831599	38.3858579	191
'Circulo Herpetologico de Panama', 'Panama'	Panama	-80.782127	8.537981	-83.0522411	-77.1584879	7.0409	9.7145001	300175
'Citizen Science - ALA Website', 'Australia'	NA	NA	NA	NA	NA	NA	NA	NA
'Citrus Genetic Resources Bank', 'Jeju, South Korea'	NA	NA	NA	NA	NA	NA	NA	NA
'Citrus Research Institute', 'Chongqing, China'	NA	NA	NA	NA	NA	NA	NA	NA
'City of Alexandria', 'Alexandria, United States'	Alexandria, VA, USA	-77.0469214	38.8048355	-77.144359	-77.0372879	38.785216	38.845011	4538
'City of Amsterdam', 'Amsterdam, Netherlands'	Amsterdam, Netherlands	4.8951679	52.3702157	4.7288558	5.0683903	52.2781389	52.4311573	13601
'Clements Museum of Exotic Insects', 'United States'	United States	-95.712891	37.09024	-124.39	-66.885417	18.7763	71.5388001	3452879
'Clemson University Arthropod Collection', 'Clemson, United States'	Clemson, SC 29634, USA	-82.8364148	34.6760942	-82.8377638	-82.8350658	34.6747452	34.6774432	194
'Cleveland Literary and Philosophical Society', 'Cleveland, United Kingdom'	6516 Detroit Ave, Cleveland, OH 44102, USA	-81.7307343	41.4841726	-81.7320833	-81.7293853	41.4828236	41.4855216	187
'Clifton College, Clifton College Natural History Society, Biology Department', 'Bristol, United Kingdom'	The Avenue, Bristol BS8 3HE, UK	-2.619911	51.464077	-2.62126	-2.618562	51.462728	51.465426	177
'Clifton College, Clifton College Natural History Society, Biology Department', 'Bristol, United Kingdom'	Guthrie Rd, Bristol BS8 3EZ, UK	-2.6200009	51.4627659	-2.6213499	-2.6186519	51.4614169	51.4641149	177
'Clinical Diagnostic Microbiology Srinagarind Hospital, Faculty of Medicine', 'Thailand'	Thailand	100.992541	15.870032	97.343396	105.636812	5.613038	20.465143	707071
'CM Rick Tomato Genetics Resource Center', 'United States'	United States	-95.712891	37.09024	-124.39	-66.885417	18.7763	71.5388001	3452879
'CNARP', 'Antananarivo, Madagascar'	Antananarivo, Madagascar	47.5366455	-18.8726231	47.5352965	47.5379945	-18.8739721	-18.8712741	206
'Coastal Ecology Research Station', 'Colney, United Kingdom'	NA	NA	NA	NA	NA	NA	NA	NA
'Coastal Ecology Research Station, Institute of Terrestrial Ecology', 'Colney, United Kingdom'	Colney, Norwich, UK	1.2136788	52.6190881	1.1973829	1.2327415	52.6099229	52.6371341	1503
'Coimbra Collection of Algae', 'Portugal'	NA	NA	NA	NA	NA	NA	NA	NA
'Cole(e7)o de Culturas do G(ea)ero Bacillus e G(ea)eros Correlatos', 'Rio de Janeiro, Brazil'	NA	NA	NA	NA	NA	NA	NA	NA
'Colecao de Culturas de Basidiomicetos', 'Brazil'	Brazil	-51.92528	-14.235004	-73.9828169	-28.650543	-34.0891	5.2717863	3125608
'Colecao de Culturas de Rhizobium da Fepagro', 'Brazil'	R. Gonçalves Dias, 570 - Menino Deus, Porto Alegre - RS, 90130-060, Brazil	-51.2204092	-30.0550228	-51.2217582	-51.2190602	-30.0563718	-30.0536738	198
'Colecao Entomologica, Laboratorio de Entomologia Sistematica', 'Brazil'	Brazil	-51.92528	-14.235004	-73.9828169	-28.650543	-34.0891	5.2717863	3125608
'Colecao Microorganismos', 'Brazil'	Brazil	-51.92528	-14.235004	-73.9828169	-28.650543	-34.0891	5.2717863	3125608
'Coleccin Herpetolgica de la UNNE', 'Corrientes, Argentina'	NA	NA	NA	NA	NA	NA	NA	NA
'Coleccion Boliviana de Fauna', 'Bolivia'	La Paz, Bolivia	-68.066349400000007	-16.5386846	-68.0676984	-68.0650004	-16.5400336	-16.5373356	207
'Coleccion de Cepas Microbianas', 'Mexico'	NA	NA	NA	NA	NA	NA	NA	NA
'Coleccion de Cultivos Microbianos', 'Argentina'	Argentina	-63.616672	-38.416097	-73.5603601	-53.637481	-55.1250224	-21.7810459	2002039
'Coleccion de Mastozoologia, Museo de Historia Natural de La Salle', 'Venezuela'	Caracas 1050, Capital District, Venezuela	-66.883996	10.512008	-66.885345	-66.882647	10.510659	10.513357	210
'Coleccion de Microhongos', 'Mexico'	Mexico	-102.552784	23.634501	-118.6523001	-86.5887	14.3895	32.7186534	1859572
'Coleccion de Termitas Mexicanas', 'Mexico'	Mexico	-102.552784	23.634501	-118.6523001	-86.5887	14.3895	32.7186534	1859572
'Coleccion Entomologica quot;Luis Maria Murilloquot;', 'Colombia'	Colombia	-74.297333	4.570868	-81.8317	-66.8463122	-4.2271099	13.5177999	1283943
'Coleccion Espanola de Cultivos Tipo', 'Spain'	Colección Española de Cultivos Tipo (CECT, Calle Catedrático Agustín Escardino, 9, 46980 Paterna, Valencia, Spain	-0.4230363	39.5163874	-0.4243853	-0.4216873	39.5150384	39.5177364	189
'Coleccion Espanola de Cultivos Tipo', 'Spain'	Av. de Blasco Ibáñez, 13, 46010 València, Valencia, Spain	-0.3593863	39.4793254	-0.3607353	-0.3580373	39.4779764	39.4806744	189
'Coleccion Ictiologica del Departamento de Ciencias Marinas de la Universidad de la Laguna', 'Spain'	Calle Padre Herrera, s/n, 38200 San Cristóbal de La Laguna, Santa Cruz de Tenerife, Spain	-16.3158443	28.4810941	-16.3171933	-16.3144953	28.4797451	28.4824431	200
'Coleccion Microorganismos Departamento Microbiologia', 'Colombia'	Colombia	-74.297333	4.570868	-81.8317	-66.8463122	-4.2271099	13.5177999	1283943
'Coleccion Ornitologica Phelps', 'Venezuela'	Bello Monte Caracas 1060, Distrito Capital, Venezuela	-66.8745719	10.4927603	-66.8759209	-66.8732229	10.4914113	10.4941093	210
'Coleccion Paleontologica', 'Chile'	NA	NA	NA	NA	NA	NA	NA	NA
'Coleccion Vertebrados, Facultad de Ciencias, La Hechicera, Universidad de los Andes', 'Venezuela'	La Hechicera, Mérida 5101, Mérida, Venezuela	-71.1493077	8.6272855	-71.1610651	-71.1420965	8.6217354	8.6325125	982
'Coleccion Vertebrados, Facultad de Ciencias, La Hechicera, Universidad de los Andes', 'Venezuela'	Andean Region, Venezuela	-70.8119953	8.3525022	-72.487198	-67.5920339	7.2991341	10.038561	218417
'Colecciones naturales de la Asociacin BIGA para el estudio del patrimonio natural de Galicia: FBIGA y ABIGA.', 'Spain'	NA	NA	NA	NA	NA	NA	NA	NA
'Colegio de La Salle', 'Habana, Cuba'	Havana, Cuba	-82.3510354	23.1398041	-82.3523844	-82.3496864	23.1384551	23.1411531	203
'Coli', 'Colti, Romania'	NA	NA	NA	NA	NA	NA	NA	NA
'Collaborating Centre for Reference and Research on Escherichia and Klebsiella', 'Denmark'	NA	NA	NA	NA	NA	NA	NA	NA
'Collecion de Artropodos', 'Guatemala'	NA	NA	NA	NA	NA	NA	NA	NA
'Collection de Champignons et Actinomycetes Pathogenes', 'France'	NA	NA	NA	NA	NA	NA	NA	NA
'Collection de genomes d organismes symbiotiques', 'Canada'	Canada	-106.346771	56.130366	-142	-50	41.6765559	83.6381	3018372
'Collection de Levures d Interet Biotechnologique Collection of Yeasts of Biotechnological Interest', 'France'	France	2.213749	46.227638	-5.5591	9.6624999	41.31433	51.1241999	772195
'Collection de Recherche', 'France'	France	2.213749	46.227638	-5.5591	9.6624999	41.31433	51.1241999	772195
'Collection de Recursos Geneticos Fungicos, Instituto de Ecologia y Systematica', 'Cuba'	NA	NA	NA	NA	NA	NA	NA	NA
'Collection de Souches de l Unite des Rickettsies', 'France'	NA	NA	NA	NA	NA	NA	NA	NA
'Collection du Centre de Recherche en Infectiologie', 'Canada'	Canada	-106.346771	56.130366	-142	-50	41.6765559	83.6381	3018372
'Collection du Laborataire d Ecologie', 'Belgium'	NA	NA	NA	NA	NA	NA	NA	NA
'Collection Francaise des Bacteries Phytopathogenes', 'France'	NA	NA	NA	NA	NA	NA	NA	NA
'Collection Nationale de Cultures de Microorganismes', 'France'	25-28 Rue du Dr Roux, 75015 Paris, France	2.3112488	48.8403734	2.3098998	2.3125978	48.8390244	48.8417224	180
'Collection of Algae in Leningrad, St Petersburg, State University', 'Russia'	University Embankment, 7/9, Sankt-Peterburg, Russia, 199034	30.2989199	59.941894	30.2975709	30.3002689	59.940545	59.943243	168
'Collection of Animal Pathogenic Microorganisms', 'Czechia'	Czechia	15.472962	49.817492	12.090589	18.8592361	48.5518081	51.0557185	277175
'Collection of Animal Viruses', 'Hungary'	Hungary	19.5033041	47.162494	16.1133078	22.8965438	45.7370889	48.585234	299053
'Collection of Aquatic Important Microorganisms', 'Mexico'	Mexico	-102.552784	23.634501	-118.6523001	-86.5887	14.3895	32.7186534	1859572
'Collection of Environmental and Laboratory Microbial Strains', 'Estonia'	Ülikooli 18, 50090 Tartu, Estonia	26.7198659	58.3810843	26.7185169	26.7212149	58.3797353	58.3824333	170
'Collection of Industrial Microorganisms', 'Romania'	Romania	24.96676	45.943161	20.2617591	29.7784	43.6186193	48.26518	447121
'Collection of Insect Pathogens, Dept of Entomology', 'India'	NA	NA	NA	NA	NA	NA	NA	NA
'Collection of Leptospira Strains', 'Italy'	Italy	12.56738	41.87194	6.6267201	18.7975999	35.4897	47.092	762462
'Collection of Marine Biological Germplasm', 'China'	China	104.195397	35.86166	73.4994136	134.7754563	17.9996	53.5609739	3079916
'Collection of Marine Microorganisms', 'Russia'	NA	NA	NA	NA	NA	NA	NA	NA
'Collection of Microorganisms Producing Antibiotics', 'Poland'	NA	NA	NA	NA	NA	NA	NA	NA
'Collection of Plant Pathogens', 'Poland'	NA	NA	NA	NA	NA	NA	NA	NA
'Collection of Salmonella Microorganisms', 'Poland'	NA	NA	NA	NA	NA	NA	NA	NA
'Collections de la Faculte des Sciences de Lyon', 'France'	NA	NA	NA	NA	NA	NA	NA	NA
'College Natural History Society', 'Hertford, United Kingdom'	NA	NA	NA	NA	NA	NA	NA	NA
'Collezione Instituto di Microbiologia', 'Italy'	Italy	12.56738	41.87194	6.6267201	18.7975999	35.4897	47.092	762462
'Collezione Nazionale di Microrganismi di interesse Agrario ed Industriale ed Ambientale - COLMIA', 'Italy'	NA	NA	NA	NA	NA	NA	NA	NA
'Colo-i-Suva Silvicultural Station', 'Fiji'	Colo-I-Suva Forest Park, Kings Road, Nasinu, Fiji	178.4129099	-18.032387	178.4115609	178.4142589	-18.033736	-18.031038	207
'Colo-i-Suva Silvicultural Station', 'Fiji'	Colo-I-Suva Rainforest Eco Resort (Raintree Lodge) Suva, Princes Road, Colo i Suva (opposite Police Post), Princess Rd, Suva, Fiji	178.4574736	-18.0580134	178.4561246	178.4588226	-18.0593624	-18.0566644	207
'Colorado Entomological Museum (formerly John T Polhemus collection)', 'United States'	Colorado, USA	-105.7820674	39.5500507	-109.060256	-102.040878	36.992424	41.0034439	356724
'Comision Tecnico Consultiva de Coeficientes de Agostadero (COTECOCA)', 'Mexico City, Mexico'	Mexico City, CDMX, Mexico	-99.133208	19.4326077	-99.3267771	-98.9604482	19.1887101	19.5927571	25360
'Conseil National des Sciences', 'Vientiane, Laos'	Vientiane, Laos	102.6331035	17.9757058	102.5341096	102.6774216	17.8847653	18.0361139	8169
'Consiglio Nazionale delle Ricerche, Istituto per l Ambiente Marino Costiero, Istituto Sperimentale Talassografico A Cerruti', 'Taranto, Italy'	Via Roma, 3, 74100 Taranto TA, Italy	17.2394425	40.4745892	17.2380935	17.2407915	40.4732402	40.4759382	188
'Copenhagen Bird Ringing Centre, Zoological Museum, Natural History Museum of Denmark', 'Denmark'	NA	NA	NA	NA	NA	NA	NA	NA
'Corchester School', 'Corbridge, United Kingdom'	NA	NA	NA	NA	NA	NA	NA	NA
'Cornell Lab of Ornithology Macaulay Library', 'Ithaca, United States'	Ithaca, NY 14850, USA	-76.4735027	42.4534492	-76.4748517	-76.4721537	42.4521002	42.4547982	186
'Corporacin Ambiental y Forestal del Pacfico', 'Cali, Colombia'	NA	NA	NA	NA	NA	NA	NA	NA
'Corporacin Autnoma Regional de Caldas', 'Manizales, Colombia'	NA	NA	NA	NA	NA	NA	NA	NA
'Corporacin Autnoma Regional de la Orinoquia', 'Yopal, Colombia'	NA	NA	NA	NA	NA	NA	NA	NA
'Corporacin Autnoma Regional de Santander', 'San Gil, Colombia'	NA	NA	NA	NA	NA	NA	NA	NA
'Corporacin Paisajes Rurales', 'Palmira, Colombia'	NA	NA	NA	NA	NA	NA	NA	NA
'Corporacin para el desarrollo sostenible del rea de manejo especial La Macarena', 'Villavicencio, Colombia'	NA	NA	NA	NA	NA	NA	NA	NA
'Corporacin para el Desarrollo Sostenible del Sur de la Amazonia', 'Mocoa, Colombia'	NA	NA	NA	NA	NA	NA	NA	NA
'Corporacin para la gestin ambiental Biodiversa', 'Santiago de Cali, Colombia'	NA	NA	NA	NA	NA	NA	NA	NA
'Corporacin San Jorge', 'Ibagu, Colombia'	NA	NA	NA	NA	NA	NA	NA	NA
'Council for Geosciences', 'South Africa'	280 Pretoria St, Silverton, Pretoria, 0184, South Africa	28.282231	-25.732302	28.280882	28.28358	-25.733651	-25.730953	202
'Crop Research Institute', 'Czechia'	Czechia	15.472962	49.817492	12.090589	18.8592361	48.5518081	51.0557185	277175
'Croydon Natural History and Scientific Society', 'United Kingdom'	NA	NA	NA	NA	NA	NA	NA	NA
'Crustacean Collection of the Department of Biology', 'Brazil'	NA	NA	NA	NA	NA	NA	NA	NA
'Cryobank of Microorganisms', 'Russia'	NA	NA	NA	NA	NA	NA	NA	NA
'Cryobank of Microorganisms-Destructors', 'Russia'	Russia	105.318756	61.52401	19.6160999	179	40	82.1673907	3040461
'Cryptogamic Herbarium of Kunming Institute of Botany', 'China'	NA	NA	NA	NA	NA	NA	NA	NA
'CSIRO Canberra Rhizobium Collection', 'Australia'	Canberra ACT 2601, Australia	149.1300092	-35.2809368	149.1207312	149.1376675	-35.2873252	-35.2752841	937
'CSIRO Collection of Living Micro-algae', 'Australia'	NA	NA	NA	NA	NA	NA	NA	NA
'CSIRO Insect Pathogen Culture Collection', 'Australia'	Australia	133.775136	-25.274398	100.0911072	166.7429167	-54.8337658	-0.6911344	4283914
'CSIRO National Fish Collection', 'Australia'	Australia	133.775136	-25.274398	100.0911072	166.7429167	-54.8337658	-0.6911344	4283914
'Culture and Information Centre of Industrial Microorganisms of China s Univeristies', 'China'	NA	NA	NA	NA	NA	NA	NA	NA
'Culture Collection IBSO', 'Russia'	Russia	105.318756	61.52401	19.6160999	179	40	82.1673907	3040461
'Culture Collection of Algae and Protozoa', 'Oban, United Kingdom'	Scottish Marine Institute, Oban PA37 1QA, United Kingdom	-5.4411761	56.45131	-5.4425251	-5.4398271	56.449961	56.452659	172
'Culture Collection of Algae and Protozoa', 'Oban, United Kingdom'	Scottish Marine Institute, Dunbeg, Oban PA37 1QA, United Kingdom	-5.4418621	56.451777	-5.4432111	-5.4405131	56.450428	56.453126	172
'Culture Collection of Animal Cells', 'Turkey'	Turkey	35.243322	38.963745	25.5377	44.8178449	35.808592	42.3666999	892754
'Culture Collection of Antimicrobial Resistant Microbes', 'Seoul, South Korea'	NA	NA	NA	NA	NA	NA	NA	NA
'Culture Collection of Autotrophic Organisms', 'Czechia'	NA	NA	NA	NA	NA	NA	NA	NA
'Culture Collection of Basidiomycetes', 'Czechia'	Czechia	15.472962	49.817492	12.090589	18.8592361	48.5518081	51.0557185	277175
'Culture Collection of Ciliates and their Symbionts', 'Russia'	Russia	105.318756	61.52401	19.6160999	179	40	82.1673907	3040461
'Culture Collection of Cryophilic Algae', 'Germany'	Germany	10.451526	51.165691	5.8663425	15.0418962	47.2701115	55.0815	532990
'Culture Collection of Dairy Microorganisms Laktoflora', 'Czechia'	Czechia	15.472962	49.817492	12.090589	18.8592361	48.5518081	51.0557185	277175
'Culture Collection of Department of Microbiology', 'China'	NA	NA	NA	NA	NA	NA	NA	NA
'Culture Collection of Entomogenous Bacteria', 'Czechia'	NA	NA	NA	NA	NA	NA	NA	NA
'Culture Collection of Fungi', 'Czechia'	NA	NA	NA	NA	NA	NA	NA	NA
'Culture Collection of Industrial Microorganisms', 'Portugal'	NA	NA	NA	NA	NA	NA	NA	NA
'Culture Collection of Macromycetes (Basidiomycotina and Ascomycotina)', 'Czechia'	Czechia	15.472962	49.817492	12.090589	18.8592361	48.5518081	51.0557185	277175
'Culture Collection of Microalgae IPPAS', 'Russia'	Russia	105.318756	61.52401	19.6160999	179	40	82.1673907	3040461
'Culture Collection of Microorganisms', 'Spain'	NA	NA	NA	NA	NA	NA	NA	NA
'Culture collection of Pedro Crous', 'Netherlands'	Netherlands	5.291266	52.132633	3.3316	7.2275102	50.7503837	53.6756	205447
'Culture Collection of Phytopathogenic Fungi (Colecao de Culturas de Fungos Fitopatogenicos Prof Maria Menezes)', 'Brazil'	Brazil	-51.92528	-14.235004	-73.9828169	-28.650543	-34.0891	5.2717863	3125608
'Culture Collection of Sichuan Industrial Institute Antibiotics', 'China'	Sichuan, China	102.8054753	30.2638032	97.3480814	108.5467122	26.0458652	34.3129997	702675
'Culture Collection of the Institute of New Antibiotics', 'Russia'	Russia	105.318756	61.52401	19.6160999	179	40	82.1673907	3040461
'Culture Collection of the Research and Development Department', 'Japan'	NA	NA	NA	NA	NA	NA	NA	NA
'Culture Collection Trutnov', 'Czechia'	Trutnov, Czechia	15.9090923	50.5653838	15.8502722	16.010826	50.4944914	50.64789	8921
'Culture Collection, University of Goteborg, Department of Clinical Bacteriology', 'Sweden'	NA	NA	NA	NA	NA	NA	NA	NA
'Culture Scientifique et Technique (CST) Universite de Rennes 1', 'Rennes Cedex, France'	NA	NA	NA	NA	NA	NA	NA	NA
'Cultures Cells for Institute Adolfo Lutz', 'Brazil'	Brazil	-51.92528	-14.235004	-73.9828169	-28.650543	-34.0891	5.2717863	3125608
'Cusino Wildlife Research Station', 'Shingleton, United States'	Cusino, Shingleton, MI 49884, USA	-86.3587722	46.4449591	-86.3747796	-86.3427648	46.4372701	46.452647	1498
'Cusino Wildlife Research Stationtural Resources Department', 'Shingleton, United States'	Cusino State Wildlife Research Area, Shingleton, MI 49884, USA	-86.4794243	46.3588275	-86.4900323	-86.4701196	46.3540825	46.3685751	972
'Custody Museum', 'North Korea'	Pyongyang, North Korea	125.7397882	39.0404784	125.7384392	125.7411372	39.0391294	39.0418274	190
'Czech Collection of Microorganisms', 'Czechia'	Czechia	15.472962	49.817492	12.090589	18.8592361	48.5518081	51.0557185	277175
'Czech National Collection of Type Culturestional Institute of Public Health', 'Praha, Czechia'	Šrobárova 49/48, Vinohrady, 100 00 Praha-Praha 10, Czechia	14.4729138	50.0761205	14.4715648	14.4742628	50.0747715	50.0774695	178
'Dalian Natural History Museum', 'Dalian, China'	40 Xicun St, HeiShiJiao, Shahekou Qu, Dalian Shi, Liaoning Sheng, China	121.561561	38.870318	121.560212	121.56291	38.868969	38.871667	190
'Danish Arctic Station', 'Disko, Greenland'	Disko Island, Greenland	-53.4333802	69.8264669	-54.9765457	-51.8492776	69.2312884	70.3302828	82403
'Danish Mycological Society', 'Denmark'	Denmark	9.501785	56.26392	7.8552001	15.2298	54.4317001	58.02846	229156
'Danish Nature Agency', 'Denmark'	Haraldsgade 53, 2100 København, Denmark	12.553461	55.706541	12.552112	12.55481	55.705192	55.70789	172
'Danish Ornithological Society', 'Denmark'	Vesterbrogade 138, 1620 København, Denmark	12.5418663	55.6707442	12.5405173	12.5432153	55.6693952	55.6720932	173
'Daqing Teachers College', 'Daqing, China'	Xibin W Rd, Ranghulu Qu, Daqing Shi, Heilongjiang Sheng, China, 163453	124.8640957	46.6413426	124.8627467	124.8654447	46.6399936	46.6426916	182
'Darlington and Teesdale Naturalists Field Club', 'Darlington, United Kingdom'	Teesdale Ave, Darlington DL3, UK	-1.5916341	54.520231	-1.5935457	-1.5908478	54.5183099	54.5210078	100
'Delhi University Mycological Herbarium', 'India'	Benito Juarez Rd, South Campus, South Moti Bagh, South Campus, South Moti Bagh, New Delhi, Delhi 110021, India	77.1638282	28.5842523	77.1624792	77.1651772	28.5829033	28.5856013	199
'Delta Institute of Natural History', 'Bowdoin, United States'	NA	NA	NA	NA	NA	NA	NA	NA
'Dep. of Plant Biology (Botany), Faculty of Pharmacy, Univ. Salamanca', 'Salamanca, Spain'	NA	NA	NA	NA	NA	NA	NA	NA
'Departamento Cientifico de Zoologia de Vertebrados', 'Argentina'	NA	NA	NA	NA	NA	NA	NA	NA
'Departamento de Biologia de la Faculdad de Filosofia y Educacion de la Universidad de Chile', 'Chile'	Av - Capitán Ignacio Carrera Pinto 1025, Ñuñoa, Región Metropolitana, Chile	-70.5950496	-33.465325	-70.5963986	-70.5937006	-33.466674	-33.463976	195
'Departamento de Defensa Fitossanitarista', 'Brazil'	Brazil	-51.92528	-14.235004	-73.9828169	-28.650543	-34.0891	5.2717863	3125608
'Departamento de Geologia, Universidad del Pais Vasco', 'Spain'	Barrio Sarriena, s/n, 48940 Leioa, Bizkaia, Spain	-2.9678921	43.3309433	-2.9692411	-2.9665431	43.3295943	43.3322923	186
'Departamento de Microbiologia Lab de Genetica de Microrganismos', 'Brazil'	Brazil	-51.92528	-14.235004	-73.9828169	-28.650543	-34.0891	5.2717863	3125608
'Departamento de Patologia Vegetal', 'Argentina'	Argentina	-63.616672	-38.416097	-73.5603601	-53.637481	-55.1250224	-21.7810459	2002039
'Departamento de Patologia/ICB', 'Brazil'	Universidade Federal de Minas Gerais - Avenida Presidente Antônio Carlos, 6627 - Campus UFMG, Belo Horizonte - MG, 31270-901, Brazil	-43.966674	-19.86821	-43.968023	-43.965325	-19.869559	-19.866861	206
'Departamento de Zoologia, Secretaria da Agricultura', 'Brazil'	NA	NA	NA	NA	NA	NA	NA	NA
'Departamento Parasitologia', 'Brazil'	Butantã, São Paulo - SP, 03178-200, Brazil	-46.7318281	-23.5675142	-46.7331771	-46.7304791	-23.5688632	-23.5661652	203
'Department of Agricultural Research', 'Gaborone, Botswana'	Gaborone, Botswana	25.9412527	-24.5911683	25.9399037	25.9426017	-24.5925173	-24.5898193	202
'Department of Agriculture and Fisheries', 'Hong Kong SAR China'	Hong Kong	114.109497	22.396428	113.8259001	114.4294999	22.1435	22.561968	37690
'Department of Agriculture Western Australia Plant Pathogen Collection', 'Australia'	NA	NA	NA	NA	NA	NA	NA	NA
'Department of Agriculture, Stock and Fisheries', 'Papua New Guinea'	NA	NA	NA	NA	NA	NA	NA	NA
'Department Of Agriculture, Thailand', 'Thailand'	NA	NA	NA	NA	NA	NA	NA	NA
'Department of Agriculture, Tunisia', 'Tunisia'	NA	NA	NA	NA	NA	NA	NA	NA
'Department of Agriculture, Zimbabwe', 'Zimbabwe'	NA	NA	NA	NA	NA	NA	NA	NA
'Department of Animal Science', 'Japan'	310 North Monroe 74078, OSU Cross Country Course, Stillwater, OK 74075, United States	-97.0721661	36.125753	-97.0735151	-97.0708171	36.124404	36.127102	193
'Department of Animal Science', 'Japan'	1364 Eckles Ave, Falcon Heights, MN 55108, USA	-93.1852146	44.9821628	-93.1865636	-93.1838656	44.9808138	44.9835118	184
'Department of Applied Biology, Faculty of science', 'Thailand'	Thailand	100.992541	15.870032	97.343396	105.636812	5.613038	20.465143	707071
'Department of Biochemistry and Microbiology', 'Czechia'	71 Lipman Dr, New Brunswick, NJ 08901, USA	-74.4359379	40.4809441	-74.4372869	-74.4345889	40.4795951	40.4822931	188
'Department of Biologics Research', 'United States'	United States	-95.712891	37.09024	-124.39	-66.885417	18.7763	71.5388001	3452879
'Department of Biology, Faculty of Science', 'Thailand'	San Diego, CA 92161, USA	-117.2421993	32.8759074	-117.2435483	-117.2408503	32.8745584	32.8772564	196
'Department of Biotechnology', 'Japan'	NA	NA	NA	NA	NA	NA	NA	NA
'Department of Conservation and Land Management', 'Australia'	Cnr 2 Australia II Drive and Hackett Drive, Crawley WA 6009, Australia	115.822623	-31.984951	115.821274	115.823972	-31.9863	-31.983602	197
'Department of Conservation and Land Management', 'Australia'	17 Dick Perry Ave, Kensington WA 6151, Australia	115.8838889	-31.9962636	115.8825399	115.8852379	-31.9976126	-31.9949146	197
'Department of Entomology', 'United States'	339 Science II, Ames, IA 50011, USA	-93.6463984	42.0301187	-93.6477474	-93.6450494	42.0287697	42.0314677	187
'Department of Fishery, Huazhong Agriculture Collection', 'China'	China, Hubei, Wuhan, Hongshan, 南湖路	114.353035	30.475126	114.351686	114.354384	30.473777	30.476475	198
'Department of Food Science and Technology, Faculty of Agriculture', 'Thailand'	2650 Young Ave, Fayetteville, AR 72704, USA	-94.1732015	36.1004208	-94.1745505	-94.1718525	36.0990718	36.1017698	193
'Department of Forest Sciences', 'Helsinki, Finland'	NA	NA	NA	NA	NA	NA	NA	NA
'Department of Geology', 'United Kingdom'	3 S Parks Rd, Oxford OX1 3QR, UK	-1.2544547	51.7585237	-1.2558037	-1.2531057	51.7571747	51.7598727	177
'Department of Harbours and Marine', 'Australia'	Australia	133.775136	-25.274398	100.0911072	166.7429167	-54.8337658	-0.6911344	4283914
'Department of Marine Resources, Zanzibar', 'Tanzania'	Unguja, Tanzania	39.3621196	-6.1357295	39.181637	39.5803896	-6.4781464	-5.7217955	42810
'Department of Microbiology and Immunology', 'Thailand'	Thailand	100.992541	15.870032	97.343396	105.636812	5.613038	20.465143	707071
'Department of Microbiology MUL-B 250', 'Canada'	NA	NA	NA	NA	NA	NA	NA	NA
'Department of Microbiology, Songkla University', 'Thailand'	Kho Hong, Hat Yai District, Songkhla 90110, Thailand	100.4990782	7.0058848	100.4977292	100.5004272	7.0045358	7.0072338	211
'Department of Microbiology, Veterinary Branch of National Strain Collection', 'Poland'	NA	NA	NA	NA	NA	NA	NA	NA
'Department of Mycology', 'Brazil'	NA	NA	NA	NA	NA	NA	NA	NA
'Department of Natural Resources, Environment, The Arts and Sport', 'Palmerston, Australia'	25 Chung Wah Terrace, Palmerston City NT 0830, Australia	130.983245	-12.480022	130.981896	130.984594	-12.481371	-12.478673	209
'Department of Natural Resources, Environment, The Arts and Sport, Northern Territory of Australia', 'Australia'	NA	NA	NA	NA	NA	NA	NA	NA
'Department of Parasitology', 'United Kingdom'	NA	NA	NA	NA	NA	NA	NA	NA
'Department of Plant Resources', 'Kathmandu, Nepal'	NA	NA	NA	NA	NA	NA	NA	NA
'Department of Primary Industry', 'Papua New Guinea'	NA	NA	NA	NA	NA	NA	NA	NA
'Department of Scientific and Industrial Research', 'New Zealand'	NA	NA	NA	NA	NA	NA	NA	NA
'Department of Soil Science, Faculty of Agriculture', 'Thailand'	NA	NA	NA	NA	NA	NA	NA	NA
'Department of Vertebrate Zoology', 'Vietnam'	NA	NA	NA	NA	NA	NA	NA	NA
'Department of Virology', 'Nigeria'	NA	NA	NA	NA	NA	NA	NA	NA
'Department of Zoology, University Museum', 'Japan'	NA	NA	NA	NA	NA	NA	NA	NA
'Dept Agricult Chem Technol', 'Hungary'	Hungary	19.5033041	47.162494	16.1133078	22.8965438	45.7370889	48.585234	299053
'Dept. Research and Forest Experiences of Valonsadero, Regional Government of Castile and Leon', 'Soria, Spain'	Calle Valonsadero, Soria, Spain	-2.4734779	41.768377	-2.4757158	-2.4718514	41.7667859	41.7702867	252
'Desert Ecological Research Unit', 'Namibia'	NA	NA	NA	NA	NA	NA	NA	NA
'Desert Experiment Station of the WIR', 'Repetek, Turkmenistan'	Repetek, Turkmenistan	63.1767033	38.564836	63.1665803	63.1807423	38.5564886	38.5706494	735
'Desert Forestry Experimental Centre', 'Dengkou, China'	Dengkou, Bayan Nur, Inner Mongolia, China	107.008248	40.330524	106.1576845	107.1732464	40.1680573	40.9549873	70735
'Desert Forestry Experimental Centre, Chinese Academy of Forestry', 'Dengkou, China'	Dengkou, Bayan Nur, Inner Mongolia, China	107.008248	40.330524	106.1576845	107.1732464	40.1680573	40.9549873	70735
'Desert Institute, Turkmenistan Academy of Sciences', 'Chardzhou, Turkmenistan'	Turkmenabat, Turkmenistan	63.568808	39.0041313	63.4875871	63.6343575	38.8969115	39.1264648	13829
'Det Kgl Norske Videnskabers Selskab Museet', 'Norway'	NA	NA	NA	NA	NA	NA	NA	NA
'DFP Culture Collection', 'Australia'	Australia	133.775136	-25.274398	100.0911072	166.7429167	-54.8337658	-0.6911344	4283914
'Dinosaur Natural History Museum', 'United States'	2401 Chautauqua Ave, Norman, OK 73072, USA	-97.4490153	35.1944207	-97.4503643	-97.4476663	35.1930717	35.1957697	194
'Dipartimento di Coltivazione e Difesa delle Specie Legnose dell Universita, Sezione Entomologia Agraria', 'Italy'	Via Venti Settembre, 123/A, 00187 Roma RM, Italy	12.4923737	41.9026155	12.4910247	12.4937227	41.9012665	41.9039645	187
'Dipartimento di Entomologia e Zoologia Applicate all Ambiente quot;Carlo Vidanoquot;', 'Italy'	Italy	12.56738	41.87194	6.6267201	18.7975999	35.4897	47.092	762462
'Direccao Geral do Ambiente, Cabinet of Environment, Ministry of Natural Resources and Environment', 'So Tom City, São Tomé & Príncipe'	NA	NA	NA	NA	NA	NA	NA	NA
'Direccion Nacional Forestal, Ministerio de Agricultura y Ganaderia', 'Quito, Ecuador'	Av. Amazonas, Quito 170517, Ecuador	-78.4879049	-0.1926098	-78.4892539	-78.4865559	-0.1939588	-0.1912608	212
'Direccion Nacional Forestal, Ministerio de Agricultura y Ganaderia, Centro Forestal de Conocoto', 'Quito, Ecuador'	Av. Amazonas, Quito 170517, Ecuador	-78.4879049	-0.1926098	-78.4892539	-78.4865559	-0.1939588	-0.1912608	212
'Direction de la Faune et de la Chasse', 'Togo'	Togo	0.824782	8.619543	-0.1440418	1.8089071	6.0812	11.139617	298904
'Direction des Eaux et Forts (DEF)/Ministre de lEnvironnement et des Ressources Forestires', 'Togo'	NA	NA	NA	NA	NA	NA	NA	NA
'Direction des Ressources Forestires (DRF)', 'Lome, Togo'	NA	NA	NA	NA	NA	NA	NA	NA
'Direction Gnrale des Eaux, Forts et Chasse', 'Cotonou, Benin'	NA	NA	NA	NA	NA	NA	NA	NA
'DIRECTION GENERALE  DE LA METEOROLOGIE NATIONALE', 'Lom, Togo'	NA	NA	NA	NA	NA	NA	NA	NA
'Direction Generale de la Statistique et de la Comptabilite Nationale (DGSCN)', 'Lome, Togo'	Lome, Togo	1.2254183	6.1256261	1.1121082	1.3812733	6.1135871	6.2510563	12613
'District Museum, Hamilton District Council', 'Hamilton, United Kingdom'	129 Muir St, Hamilton ML3 6BJ, UK	-4.035023	55.7795566	-4.036372	-4.033674	55.7782076	55.7809056	172
'Divisao de Geologia c Mineralogia', 'Brazil'	Brazil	-51.92528	-14.235004	-73.9828169	-28.650543	-34.0891	5.2717863	3125608
'Division of Biological Sciences, National Research Council of Canada', 'Canada'	NA	NA	NA	NA	NA	NA	NA	NA
'Division of Fisheres', 'Laos'	Laos	102.495496	19.85627	100.0832139	107.635094	13.9097198	22.5090449	609113
'Division of Forest Research', 'Kitwe, Zambia'	NA	NA	NA	NA	NA	NA	NA	NA
'Division of Primary Industry', 'Konedobu, Papua New Guinea'	Konedobu, Port Moresby, Papua New Guinea	147.1591142	-9.4644553	147.1560906	147.1658027	-9.4670172	-9.4607408	437
'Division of Primary Industry, Plant Pathology Section', 'Konedobu, Papua New Guinea'	Konedobu, Port Moresby, Papua New Guinea	147.1591142	-9.4644553	147.1560906	147.1658027	-9.4670172	-9.4607408	437
'Division Vector-Borne Infectious Diseases', 'United States'	1600 Clifton Rd, Atlanta, GA 30333, USA	-84.328008	33.7993178	-84.329357	-84.326659	33.7979688	33.8006668	195
'Divisional Forest Office', 'Bambawo via Kenema, Sierra Leone'	Bambawo, Sierra Leone	-11.333905	8.4985	-11.3499124	-11.3178976	8.4874644	8.5095353	2144
'Divisional Forest Office, Forestry Research Office', 'Kenema, Sierra Leone'	NA	NA	NA	NA	NA	NA	NA	NA
'DNA-TAX', 'Germany'	Germany	10.451526	51.165691	5.8663425	15.0418962	47.2701115	55.0815	532990
'DOI/BLM, Billings Curation Center', 'Billings, United States'	5001 Southgate Dr, Billings, MT 59101, USA	-108.5423148	45.7545496	-108.5436638	-108.5409658	45.7532006	45.7558986	183
'Dominick Moth and Butterfly Collection', 'United States'	United States	-95.712891	37.09024	-124.39	-66.885417	18.7763	71.5388001	3452879
'Donetsk Botanical Garden of the National Academy of Sciences of Ukraine', 'Donetsk, Ukraine'	Donetsk Botanical Garden, просп. Ильича, 110, Donetsk, Донецкая, Ukraine, 83000	37.878657	48.009356	37.877308	37.880006	48.008007	48.010705	181
'Dorset Environmental Records Centre', 'United Kingdom'	Dorset History Centre, Bridport Rd, Dorchester DT1 1RP, UK	-2.445048	50.714513	-2.446397	-2.443699	50.713164	50.715862	178
'Dr Alvaro de Castro Provincial Museum', 'Mozambique'	Mozambique	35.529562	-18.665695	30.2155501	41.3965	-26.9612	-10.3128929	1068058
'Drosophila Species Stock Center', 'United States'	United States	-95.712891	37.09024	-124.39	-66.885417	18.7763	71.5388001	3452879
'DSID   (DIRECTION DES STATISTIQUES AGRICOLES, DE LINFORMATIQUE ET DE LA DOCUMENTATION)', 'Lom, Togo'	NA	NA	NA	NA	NA	NA	NA	NA
'Dublin Naturalists Field Club', 'Dublin, Ireland'	Dublin, Ireland	-6.2603097	53.3498053	-6.4474847	-6.0439235	53.2234301	53.4252101	16664
'Dudley and Midland Geological and Scientific Society and Field Club', 'Dudley, United Kingdom'	NA	NA	NA	NA	NA	NA	NA	NA
'Dumfries and Galloway Natural History and Antiquarian Society', 'Dumfries, United Kingdom'	NA	NA	NA	NA	NA	NA	NA	NA
'Dundee Naturalists Society', 'Dundee, United Kingdom'	NA	NA	NA	NA	NA	NA	NA	NA
'Dutch Plant Protection Service, Culture Collection of Plant Pathogenic Bacteria', 'Netherlands'	Netherlands	5.291266	52.132633	3.3316	7.2275102	50.7503837	53.6756	205447
'E coli Genetic Stock Center', 'United States'	United States	-95.712891	37.09024	-124.39	-66.885417	18.7763	71.5388001	3452879
'Earthworm Society of Britain', 'United Kingdom'	United Kingdom	-3.435973	55.378051	-8.8988999	33.9165549	34.5614	60.9157	2250062
'East China Sea Fisheries Institute', 'China'	East China Sea	125.9152074	30.3953462	119.4653562	131.122707	24.0544511	33.2858335	587827
'East Divisional Library', 'Rugby, United Kingdom'	NA	NA	NA	NA	NA	NA	NA	NA
'Eastern Slovakian (Vychodoslovenske) Museumtural History Department', 'KoIce, Slovakia'	NA	NA	NA	NA	NA	NA	NA	NA
'ECOCEAN', 'Murdoch, Australia'	Murdoch WA 6150, Australia	115.825	-32.071	115.8239554	115.8505642	-32.0797883	-32.058399	979
'Ecole doctorale de biodiversit  et Environnements Tropicaux de l'universit de Toliara', 'Toliara I, Madagascar'	NA	NA	NA	NA	NA	NA	NA	NA
'Ecuadorian Institute of Natural Sciences', 'Ecuador'	Ecuador	-78.183406	-1.831239	-92.6038	-75.1887938	-5.0143509	2.2955	565067
'Edinburgh Natural History Society', 'Edinburgh, United Kingdom'	NA	NA	NA	NA	NA	NA	NA	NA
'EEIKO: a control of invasive alien flora species multi-platform application', 'Leioa Bizkaia, Spain'	Dr. Luis Bilbao Líbano, 11, 48940 Leioa, Bizkaia, Spain	-2.985636	43.3233946	-2.986985	-2.984287	43.3220456	43.3247436	186
'Egypt Microbial Culture Collection', 'Egypt'	NA	NA	NA	NA	NA	NA	NA	NA
'Ein Yabrud collection catalogue entries at The Hebrew University', 'Jerusalem, Israel'	NA	NA	NA	NA	NA	NA	NA	NA
'ELASMOCAN, Asociacin Canaria para la Investigacin y Conservacin de los Elasmobranquios', 'Las Palmas de Gran Canaria, Spain'	NA	NA	NA	NA	NA	NA	NA	NA
'Ellesmere Chambers, Preston Scientific Society', 'Preston, United Kingdom'	Ellesmere SY12, UK	-2.900338	52.906718	-2.9122303	-2.8817356	52.9009044	52.9242894	1029
'Ellesmere Chambers, Preston Scientific Society', 'Preston, United Kingdom'	Preston, UK	-2.70309	53.763201	-2.7640235	-2.63028	53.748021	53.7924911	4360
'Embrapa Collection of Fungi of Invertebrates', 'Brazil'	Brazil	-51.92528	-14.235004	-73.9828169	-28.650543	-34.0891	5.2717863	3125608
'Emirates Centre for Wildlife Propagation', 'Missour, Morocco'	NA	NA	NA	NA	NA	NA	NA	NA
'Emory and Henry College', 'Emory, United States'	NA	NA	NA	NA	NA	NA	NA	NA
'Empresa Baiana de Desenvolvimento Agricola', 'Salvador, Brazil'	NA	NA	NA	NA	NA	NA	NA	NA
'Enciclopedia de la Flora Chilena', 'Chile'	Chile	-71.542969	-35.675147	-110.0281	-66.3327	-56.1455	-17.4983291	2078877
'Endemic Species Research Institute', 'Nantou, Taiwan'	NA	NA	NA	NA	NA	NA	NA	NA
'Entomological Laboratory, College of Agriculture', 'Japan'	NA	NA	NA	NA	NA	NA	NA	NA
'Entomological Society of Egypt', 'Egypt'	NA	NA	NA	NA	NA	NA	NA	NA
'Entomological Society of Latvia', 'Latvia'	NA	NA	NA	NA	NA	NA	NA	NA
'Entomology Collection, Punjab Agricultural University', 'Pakistan'	Shamsabad, Muree Road، Shamsabad, Rawalpindi, Punjab 46000, Pakistan	73.0814936	33.6492326	73.0801446	73.0828426	33.6478836	33.6505816	195
'Entomology Collection, Punjab Agricultural University', 'Pakistan'	University Main Rd، Faisalabad, Punjab 38000, Pakistan	73.0671994	31.4302863	73.0658504	73.0685484	31.4289373	31.4316353	197
'Eremaea', 'Australia'	NA	NA	NA	NA	NA	NA	NA	NA
'Ernst-Moritz Arndt Collection, Museum der Stadt Greifswald', 'Germany'	NA	NA	NA	NA	NA	NA	NA	NA
'Erster Vorarlberger Coleopterische Verein', 'Austria'	Vorarlberg, Austria	9.9797373	47.2497427	9.53091	10.23689	46.84081	47.59621	43131
'Escuela Nacional Ciencias', 'Mexico'	Prolongación de Carpio y Plan de Ayala s/n, Miguel Hidalgo, Santo Tomás, 11340 Ciudad de México, CDMX, Mexico	-99.1719059	19.4535461	-99.1732549	-99.1705569	19.4521971	19.4548951	206
'Estacao Experimental de Biologia e Piscicultura de Pirassununga', 'Brazil'	Rod. Prefeito Euberto Nemésio Pereira Godói, Km 6.5, S/n - Cachoeira das Emas, Pirassununga - SP, Brazil	-47.3727815	-21.9345839	-47.3741305	-47.3714325	-21.9359329	-21.9332349	204
'Estacion de Biologia Marina del Instituto Tecnologico de Veracruz', 'Mexico'	Carr. Veracruz-Córdoba 12, 94290 Boca del Río, Ver., Mexico	-96.107107	19.0965838	-96.108456	-96.105758	19.0952348	19.0979328	206
'Estacion de Investigaciones Marinas de Margarita, Fundacion La Salle de Ciencias Naturales, Dpto Biologia Marina, Museo Oceanologico Hermano Benigno Roman, Ficoteca', 'Isla De Margarita, Venezuela'	Isla Margarita, Nueva Esparta, Venezuela	-63.9113296	10.9970723	-64.4086673	-63.7768225	10.8611824	11.1799325	25002
'Estacion Experimental Agricola de la Molina', 'Peru'	NA	NA	NA	NA	NA	NA	NA	NA
'Estacion Experimental de Agricolas de la Campara', 'Mexico'	Mexico	-102.552784	23.634501	-118.6523001	-86.5887	14.3895	32.7186534	1859572
'Estacion Experimental de Plantas Medicinales Dr Juan T Roig', 'Gira De Melena, Cuba'	NA	NA	NA	NA	NA	NA	NA	NA
'Estonian Crop Research Institute', 'Jgeva, Estonia'	NA	NA	NA	NA	NA	NA	NA	NA
'Estonian Environment Information Centre', 'Estonia'	NA	NA	NA	NA	NA	NA	NA	NA
'European Arabidopsis Stock Centre', 'United Kingdom'	NA	NA	NA	NA	NA	NA	NA	NA
'European Bird Census Council (EBCC)', 'Nijmegen, Netherlands'	Nijmegen, Netherlands	5.8372264	51.8125626	5.7580163	5.9082971	51.7906823	51.8950418	5982
'European Molecular Biology Laboratory (EMBL)', 'Hinxton, United Kingdom'	Wellcome Trust Genome Campus, Hinxton, Cambridge CB10 1SD, UK	0.1877113	52.0788	0.1863623	0.1890603	52.077451	52.080149	176
'European Molecular Biology Laboratory Australia', 'Australia'	Canberra ACT 0200, Australia	149.118527	-35.2776999	149.117178	149.119876	-35.2790489	-35.2763509	194
'ex-Centro Nacional de Investigacao Cientifica (CNIC)', 'Luanda, Angola'	Luanda, Angola	13.2301756	-8.8146556	13.1580869	13.4101221	-8.9509107	-8.756154	17029
'Exploration Sira', 'Stalybridge, United Kingdom'	Stalybridge, UK	-2.0500759	53.483806	-2.0755441	-1.9633883	53.4659709	53.5164403	2608
'F1000Research', 'London, United Kingdom'	Middlesex House, 34-42 Cleveland St, Fitzrovia, London W1T 4LB, UK	-0.137959	51.5201013	-0.139308	-0.13661	51.5187523	51.5214503	177
'Faculdad de Biologia, Departamento de Zoologia', 'Spain'	Calle José Antonio Novais, 12, 28040 Madrid, Spain	-3.726829	40.44889	-3.728178	-3.72548	40.447541	40.450239	189
'Facultad de Ciencias Agronomicas de la Universidad de Chile', 'La Pintana, Chile'	Av. Sta. Rosa 11315, La Pintana, Región Metropolitana, Chile	-70.6318056	-33.5697773	-70.6331546	-70.6304566	-33.5711263	-33.5684283	195
'Faculte des Sciences Agronomiques de Gembloux', 'Belgium'	Passage des Déportés 2, 5030 Gembloux, Belgium	4.6976856	50.5629131	4.6963366	4.6990346	50.5615641	50.5642621	178
'Faculty of Agriculture', 'Japan'	Japan, 〒657-8501 Hyōgo Prefecture, Kobe, Nada Ward, Rokkodaicho, 1-1	135.2331485	34.7246092	135.2317995	135.2344975	34.7232602	34.7259582	194
'Faculty of Agriculture, Entomology Museum', 'Turkey'	NA	NA	NA	NA	NA	NA	NA	NA
'Faculty of Forestry Sciences', 'Chile'	NA	NA	NA	NA	NA	NA	NA	NA
'Falkirk District Council Museum', 'Falkirk, United Kingdom'	Callendar Rd, Falkirk FK1 1YR, UK	-3.7673664	55.9943609	-3.7687154	-3.7660174	55.9930119	55.9957099	172
'Fan Memorial Institute of Biology', 'Beijing, China'	NA	NA	NA	NA	NA	NA	NA	NA
'FCT', 'Australia'	NA	NA	NA	NA	NA	NA	NA	NA
'Felix d Herelle Reference Center for Bacterial Viruses', 'Canada'	NA	NA	NA	NA	NA	NA	NA	NA
'Filamentous fungus collection of the Spanish National Center for Microbiology', 'Spain'	NA	NA	NA	NA	NA	NA	NA	NA
'Fine Arts Museum', 'Hull, United Kingdom'	Queen Victoria Square, Carr Ln, Hull HU1 3RA, UK	-0.3392926	53.7434069	-0.3406416	-0.3379436	53.7420579	53.7447559	175
'Finnish Forest Research Institute', 'Vantaa, Finland'	NA	NA	NA	NA	NA	NA	NA	NA
'Finnish Forest Research Institute, Vantaa Research Center', 'Vantaa, Finland'	NA	NA	NA	NA	NA	NA	NA	NA
'Fish Disease Culture Collection', 'Australia'	NA	NA	NA	NA	NA	NA	NA	NA
'FishBase', 'Sweden'	Sweden	18.643501	60.128161	10.5798	24.1773101	55.0059799	69.0599709	746131
'Fisheries and Oceans Biological Station', 'Canada'	NA	NA	NA	NA	NA	NA	NA	NA
'Fisheries Research Centre', 'Malaysia'	NA	NA	NA	NA	NA	NA	NA	NA
'Fisheries Research Institute of Hunan Province', 'China'	NA	NA	NA	NA	NA	NA	NA	NA
'Fitzsimon s Snake Park', 'South Africa'	North Beach, Durban, 4001, South Africa	31.0357645	-29.843894	31.0344155	31.0371135	-29.845243	-29.842545	198
'Flinders University Smut Collection', 'Australia'	Sturt Rd, Bedford Park SA 5042, Australia	138.5713281	-35.0244952	138.5699791	138.5726771	-35.0258442	-35.0231462	194
'Folk Museum', 'Gainsborough, United Kingdom'	12 North St, Gainsborough DN21 2HS, UK	-0.774038	53.400703	-0.775387	-0.772689	53.399354	53.402052	175
'Folk Museum, Kent County Council', 'Folkestone, United Kingdom'	Town Hall, 1-2 Guildhall St, Folkestone CT20 1DY, UK	1.1810838	51.0801079	1.1797348	1.1824328	51.0787589	51.0814569	177
'FONAIAP-CENIAP', 'Maracay, Venezuela'	Maracay, Aragua, Venezuela	-67.6066164	10.2441931	-67.6685922	-67.5422287	10.2049546	10.3294132	8059
'Food and Nutrition Culture Collection', 'Indonesia'	Indonesia	113.921327	-0.789275	94.7351	141.0425	-11.1082999	6.2169999	2408783
'Food Research Institute, Ministry of Agriculture, Forestry and Fisheries', 'Japan'	NA	NA	NA	NA	NA	NA	NA	NA
'Food Science Australia, Ryde', 'Australia'	NA	NA	NA	NA	NA	NA	NA	NA
'Forest Insect and Disease Survey Reference Collection', 'Canada'	NA	NA	NA	NA	NA	NA	NA	NA
'Forest Research and Development Center and Nature Conservation', 'Bogor, Indonesia'	NA	NA	NA	NA	NA	NA	NA	NA
'Forest Research Culture Collection', 'New Zealand'	NA	NA	NA	NA	NA	NA	NA	NA
'Forest Research Institute, European Centre for Natural Forests', 'Poland'	NA	NA	NA	NA	NA	NA	NA	NA
'Forest Research Institute, New Zealand', 'New Zealand'	10 Kyle St, Riccarton, Christchurch 8011, New Zealand	172.608203	-43.5318429	172.606854	172.609552	-43.5331919	-43.5304939	185
'Forest Research Institutetural Forest Department', 'Bialowieza, Poland'	NA	NA	NA	NA	NA	NA	NA	NA
'Forest Research Station', 'Wanariset Samboja, Indonesia'	NA	NA	NA	NA	NA	NA	NA	NA
'Forestry and Forest Products Research Institute', 'Kukizaki, Japan'	Kukizaki, Tsukuba, Ibaraki Prefecture 300-1272, Japan	140.103244	35.986254	140.0948837	140.1073378	35.9849569	35.9967981	768
'Forestry and Forest Products Research Institute, Forest Biology Division', 'Tsukuba, Japan'	NA	NA	NA	NA	NA	NA	NA	NA
'Forstlichen Bundsversuchsanstalt', 'Austria'	Austria	14.550072	47.516231	9.5307834	17.1607329	46.3723358	49.0206081	255989
'Fossil Catalgoue in the Geology Museum', 'New Zealand'	55 Cable St, Te Aro, Wellington 6011, New Zealand	174.7820894	-41.2904563	174.7807404	174.7834384	-41.2918053	-41.2891073	188
'Foundation for Revitalisation of Local Health Traditions', 'Bangalores, India'	74/2, Jarakbande Kaval, Post Attur, Via Yelahanka, Bengaluru, Karnataka 560064, India	77.5484158	13.1234103	77.5470668	77.5497648	13.1220613	13.1247593	209
'Francesc de Lucas i Alcover', 'Spain'	Crtra Alcover a Mont- Ral km 9,2, 43460 Alcover, Tarragona, Spain	1.124382	41.287094	1.123033	1.125731	41.285745	41.288443	188
'Frank M Hasbrouck Insect Collection', 'United States'	United States	-95.712891	37.09024	-124.39	-66.885417	18.7763	71.5388001	3452879
'Free-Living Amoebae Culture Collection', 'Mexico'	NA	NA	NA	NA	NA	NA	NA	NA
'Free Library and Museum', 'Campbeltown, United Kingdom'	NA	NA	NA	NA	NA	NA	NA	NA
'Freshwater Algae Culture Collection', 'China'	China	104.195397	35.86166	73.4994136	134.7754563	17.9996	53.5609739	3079916
'Freshwater Microalgae Collection Cultures', 'Brazil'	Brazil	-51.92528	-14.235004	-73.9828169	-28.650543	-34.0891	5.2717863	3125608
'Fruit Tree Research and Development Center of ThuaThien-Hue-Vietnam', 'Vietnam'	NA	NA	NA	NA	NA	NA	NA	NA
'Fundao Ezequiel Dias', 'Belo Horizonte, Brazil'	NA	NA	NA	NA	NA	NA	NA	NA
'Fundacao Universidade Estadual do Ceara', 'Serrinha, Brazil'	Av. Dr. Silas Munguba, 1700 - Campus do Itaperi, Fortaleza - CE, 60741-000, Brazil	-38.5533271	-3.788272	-38.5546761	-38.5519781	-3.789621	-3.786923	211
'Fundacin  Jardn Botnico del Choc - Jotaud', 'Quibd, Colombia'	NA	NA	NA	NA	NA	NA	NA	NA
'Fundacin Biodiversa', 'Manizales, Colombia'	NA	NA	NA	NA	NA	NA	NA	NA
'Fundacin Bosques y Humedales', 'Monteria, Colombia'	NA	NA	NA	NA	NA	NA	NA	NA
'Fundacin Entropika', 'Leticia, Colombia'	NA	NA	NA	NA	NA	NA	NA	NA
'Fundacin Estacin Biolgica Guayacanal', 'Bogot, Colombia'	NA	NA	NA	NA	NA	NA	NA	NA
'Fundacin Gaia', 'Cali, Colombia'	NA	NA	NA	NA	NA	NA	NA	NA
'Fundacin Macuticos Colombia', 'Medelln, Colombia'	NA	NA	NA	NA	NA	NA	NA	NA
'Fundacin Malpelo y Otros Ecosistemas Marinos', 'Bogot, Colombia'	NA	NA	NA	NA	NA	NA	NA	NA
'Fundacin Omacha', 'Bogot, Colombia'	NA	NA	NA	NA	NA	NA	NA	NA
'Fundacin Pantera Colombia', 'Bogot DC, Colombia'	NA	NA	NA	NA	NA	NA	NA	NA
'Fundacin Para el Desarrollo Integral Cultivemos', 'Sevilla, Colombia'	NA	NA	NA	NA	NA	NA	NA	NA
'Fundacin Tortugas del Mar', 'Envigado, Colombia'	NA	NA	NA	NA	NA	NA	NA	NA
'Fundacin Trpico', 'Cali, Colombia'	NA	NA	NA	NA	NA	NA	NA	NA
'Fundacion Cientifica Los Roques', 'Venezuela'	Los Roques archipelago, Federal Dependencies of Venezuela, Venezuela	-66.7665377	11.8566815	-67.0002051	-66.5013351	11.6439468	12.0544331	34677
'Fungal Culture Collection', 'India'	India	78.96288	20.593684	68.1097	97.3953587	6.4626999	35.513327	1953528
'Fungal Culture Collection at the Botanical Museum', 'Sweden'	Sweden	18.643501	60.128161	10.5798	24.1773101	55.0059799	69.0599709	746131
'Fungal Culture Collection of Lublin', 'Poland'	Lublin, Poland	22.5684463	51.2464536	22.4540092	22.6735312	51.1397334	51.2964846	9207
'Fungal Pathogens of Hevea Rubber in Sri Lanka', 'Sri Lanka'	NA	NA	NA	NA	NA	NA	NA	NA
'Fungal Strain Collection, Laboratory of Cryptogamy', 'France'	France	2.213749	46.227638	-5.5591	9.6624999	41.31433	51.1241999	772195
'Fungi Macedonici', 'Macedonia'	Macedonia (FYROM)	21.745275	41.608635	20.29	24.182	39.705	42.535	226379
'Furstin-Eugenie-Institut fur Arzneipflanzenforschung', 'Lindich, Germany'	Germany	10.451526	51.165691	5.8663425	15.0418962	47.2701115	55.0815	532990
'Gallery of Natural History and Native Art', 'Australia'	4th St SW & Independence Ave SW, Washington, DC 20560, United States	-77.0165034	38.8883484	-77.0178524	-77.0151544	38.8869994	38.8896974	190
'Gaylord Memorial Laboratory Museum', 'United States'	United States	-95.712891	37.09024	-124.39	-66.885417	18.7763	71.5388001	3452879
'GBIF Cameroon', 'Cameroon'	Cameroon	12.354722	7.369722	8.3936001	16.1944081	1.6559	13.083335	759090
'GBIF France', 'France'	France	2.213749	46.227638	-5.5591	9.6624999	41.31433	51.1241999	772195
'GBIF New Zealand', 'Lincoln, New Zealand'	Lincoln, New Zealand	172.4842487	-43.6400869	172.4333969	172.5574946	-43.7344208	-43.6069926	6962
'GBIF Portugal', 'Portugal'	Portugal	-8.224454	39.399872	-31.4647999	-6.1891592	32.2895	42.1543111	350803
'Geocollections of Estonia', 'Tallinn, Estonia'	Tallinn, Estonia	24.7535747	59.4369608	24.5501939	24.926289	59.351809	59.591577	14950
'Geologic Museum', 'United Kingdom'	NA	NA	NA	NA	NA	NA	NA	NA
'Geological Institute of the Mongolian Academy of Sciences', 'Mongolia'	Peace Ave, Ulaanbaatar, Mongolia	106.9667423	47.9158387	106.9653933	106.9680913	47.9144897	47.9171877	181
'Geological Institute of the Mongolian Academy of Sciences', 'Mongolia'	Mongolia	103.846656	46.862496	87.7344789	119.9315098	41.581833	52.148355	1301059
'Geological Museum', 'Jerusalem, Israel'	NA	NA	NA	NA	NA	NA	NA	NA
'Geological Museum of Amsterdam University', 'Netherlands'	NA	NA	NA	NA	NA	NA	NA	NA
'Geological Museum Rome', 'Rome, Italy'	Piazza di S. Pantaleo, 10, 00186 Roma RM, Italy	12.4728722	41.8973153	12.4715232	12.4742212	41.8959663	41.8986643	187
'Geological Museum Villa Heidelberg', 'Klimpfjall, Sweden'	NA	NA	NA	NA	NA	NA	NA	NA
'Geological Survey of Nambia', 'Namibia'	Namibia	18.49041	-22.95764	11.4696999	25.261752	-28.9706389	-16.9634849	968117
'Geological Survey of New South Wales', 'Australia'	NA	NA	NA	NA	NA	NA	NA	NA
'Geological Survey of Portugal', 'Portugal'	NA	NA	NA	NA	NA	NA	NA	NA
'Geology and Mineralogy Museum', 'Russia'	NA	NA	NA	NA	NA	NA	NA	NA
'Geology Museum', 'Bath, United Kingdom'	NA	NA	NA	NA	NA	NA	NA	NA
'Georg-August-Universitt Gttingen, Albrecht-von-Haller-Institut fr Pflanzenwissenschaften, Abteilung Systematische Botanik', 'Gttingen, Germany'	NA	NA	NA	NA	NA	NA	NA	NA
'George Vanderbilt Foundation', 'United States'	United States	-95.712891	37.09024	-124.39	-66.885417	18.7763	71.5388001	3452879
'Georgian State Museum, Zoological Section', 'Georgia'	3/10 Shota Rustaveli Ave, T'bilisi 0105, Georgia	44.8001781	41.6960597	44.7988291	44.8015271	41.6947107	41.6974087	187
'German Reference Center for Meningococci', 'Germany'	NA	NA	NA	NA	NA	NA	NA	NA
'Gesneriad Gardens', 'Longmont, United States'	NA	NA	NA	NA	NA	NA	NA	NA
'Gezira Research Station', 'Wad Medani, Sudan'	NA	NA	NA	NA	NA	NA	NA	NA
'Gezkazgan Botanical Garden', 'Gezkazgan, Kazakhstan'	Kazakhstan	66.923684	48.019573	46.493672	87.315415	40.5685841	55.4419839	1624117
'Ghana Biodiversity Information Facility (GhaBIF)', 'Accra, Ghana'	Accra, Ghana	-0.1869644	5.6037168	-0.2991199	-0.060339	5.5139869	5.6684305	15748
'Giessener Zoologisches Museum', 'Germany'	Bundesstraße 52, 20146 Hamburg, Germany	9.9787142	53.5673146	9.9773652	9.9800632	53.5659656	53.5686636	175
'Ginseng Resource Bank', 'Yongin-si, South Korea'	NA	NA	NA	NA	NA	NA	NA	NA
'Glasgow Society of Field Naturalists', 'Glasgow, United Kingdom'	Glasgow, UK	-4.251806	55.864237	-4.3932005	-4.0717167	55.7812791	55.9296413	12800
'Global Mountain Biodiversity Assessment - GMBA', 'Basel, Switzerland'	Basel, Switzerland	7.5885761	47.5595986	7.5548199	7.6341	47.51931	47.5898833	4803
'Global Names Architecture', 'United States'	United States	-95.712891	37.09024	-124.39	-66.885417	18.7763	71.5388001	3452879
'Golestan Fisheries Research Centre', 'Iran'	Golestan Province, Iran	55.1375834	37.2898123	53.861679	56.2873059	36.454137	38.1115261	136373
'Goole Scientific Society', 'Goole, United Kingdom'	Goole DN14, UK	-0.876381	53.702941	-0.9033853	-0.8448961	53.686998	53.7185319	2516
'Gouvernement du Qubec', 'Canada'	NA	NA	NA	NA	NA	NA	NA	NA
'Grasslands Rhizobium Collection', 'Zimbabwe'	Zimbabwe	29.154857	-19.015438	25.237368	33.068236	-22.4219117	-15.6093188	555583
'Greek Coordinated Collections of Microorganisms', 'Greece'	NA	NA	NA	NA	NA	NA	NA	NA
'Gregorio T Velasquez Phycological Herbarium', 'Philippines'	Philippines	121.774017	12.879721	114.583481	130.6600275	3.6346296	21.2412572	1292919
'Grierson Museum', 'Thornhill, United Kingdom'	Thornhill DG3, UK	-3.769113	55.245949	-3.7790598	-3.755324	55.2336205	55.2493567	956
'Grimsby Arts and Natural History', 'Grimsby, United Kingdom'	NA	NA	NA	NA	NA	NA	NA	NA
'Grootfontein Agricultural Development Institute', 'Middelburg Ec, South Africa'	On N9 Road to Pe, Middelburg, 5900, South Africa	25.0251997	-31.4713477	25.0238507	25.0265487	-31.4726967	-31.4699987	197
'Grumeti Fund Tanzania', 'Nata, Tanzania'	Grumeti Game Reserve, Tanzania	34.2199267	-2.0185136	33.9895535	34.4028282	-2.0742463	-1.9646227	21203
'Grupo Interinstitucional para el monitoreo de la biodiversidad en el Valle del Cauca', 'Cali, Colombia'	Cali, Valle del Cauca, Colombia	-76.5319854	3.4516467	-76.590503	-76.4608249	3.2845748	3.505554	9902
'Grusinian Academy of Sciences', 'Georgia'	NA	NA	NA	NA	NA	NA	NA	NA
'Guangdong Entomology Institute', 'China'	NA	NA	NA	NA	NA	NA	NA	NA
'Guangdong Institute of Microbiology', 'Guangzhou, China'	NA	NA	NA	NA	NA	NA	NA	NA
'Guangxi Institute of Ethnomedicine', 'Nanning, China'	NA	NA	NA	NA	NA	NA	NA	NA
'Guy Harvey Research Institute', 'United States'	NA	NA	NA	NA	NA	NA	NA	NA
'Gyeoryongsan Natural History Museum', 'South Korea'	NA	NA	NA	NA	NA	NA	NA	NA
'H M Berbekov Kabardin-Balkar University', 'Nalchik, Russia'	Nalchik, Kabardino-Balkaria, Russia	43.6045133	43.4949918	43.55236	43.6985551	43.432421	43.541789	8133
'HanBat Botanical Garden', 'South Korea'	South Korea	127.766922	35.907757	124.5863	131.1603	33.0041	38.634	426703
'Hannam University Natural History Museum', 'South Korea'	70 Hannam-ro, Ojeong-dong, Daedeok-gu, Daejeon, South Korea	127.4211446	36.3544548	127.4197956	127.4224936	36.3531058	36.3558038	193
'Hartley Botanical Laboratories', 'Liverpool, United Kingdom'	NA	NA	NA	NA	NA	NA	NA	NA
'Harvey Institute', 'Barnsley, United Kingdom'	NA	NA	NA	NA	NA	NA	NA	NA
'Harvey Institute, Museum, Barnsley Naturalist and Scientific Society', 'Barnsley, United Kingdom'	NA	NA	NA	NA	NA	NA	NA	NA
'Hawaiian Algal Biodiversity Laboratory, University of Hawaii', 'United States'	NA	NA	NA	NA	NA	NA	NA	NA
'Hayashibara Museum of Natural History', 'Japan'	NA	NA	NA	NA	NA	NA	NA	NA
'Hebden Bridge Literary and Scientific Society', 'Hebden Bridge, United Kingdom'	NA	NA	NA	NA	NA	NA	NA	NA
'Heilongjiang Natural History Museum', 'China'	China, Heilongjiang, Harbin, Songbei, Taiyang Ave, 太阳岛风景区	126.577412	45.777376	126.576063	126.578761	45.776027	45.778725	183
'Helicobacter pylori Korean Type Culture Collection', 'Jinju, South Korea'	Jinju-si, Gyeongsangnam-do, South Korea	128.1076213	35.1799817	127.8880404	128.3694307	35.0508278	35.3509734	24617
'Herbaria of the University and ETH Zrich (Z+ZT)', 'Zuerich, Switzerland'	NA	NA	NA	NA	NA	NA	NA	NA
'Herbario Dr Armando Jesus Urquiola', 'Pinar Del Ro, Cuba'	NA	NA	NA	NA	NA	NA	NA	NA
'HERBARIUM AMAZONENSE  AMAZ', 'Peru'	NA	NA	NA	NA	NA	NA	NA	NA
'Herbarium Bradeanum', 'Rio De Janeiro, Brazil'	Rio de Janeiro, State of Rio de Janeiro, Brazil	-43.1728965	-22.9068467	-43.7950599	-43.0969042	-23.0822288	-22.7460327	19442
'Herbarium de la Rserve de lINERA-Luki', 'Kinshasa, Congo - Kinshasa'	NA	NA	NA	NA	NA	NA	NA	NA
'Herbarium du CRSN-Lwiro', 'Bukavu, Congo - Kinshasa'	Bukavu, Democratic Republic of the Congo	28.8480284	-2.5123017	28.8176536	28.8903522	-2.5639365	-2.4596667	6634
'Herbarium Mediterraneum Panormitanum', 'Palermo, Italy'	Palermo, Province of Palermo, Italy	13.3612671	38.1156879	13.2674205	13.4471566	38.0615392	38.219548	10193
'Herbarium Mediterraneum Panormitanum, Dipartimento di Biologia ambientale e Biodiversita', 'Palermo, Italy'	Via Archirafi, 38, 90123 Palermo PA, Italy	13.3737561	38.1098357	13.3724071	13.3751051	38.1084867	38.1111847	191
'Herbarium of Geo B Hinton', 'Galeana, Mexico'	NA	NA	NA	NA	NA	NA	NA	NA
'Herbarium of Gifu Pharmaceutical University', 'Japan'	Japan, 〒501-1196 Gifu Prefecture, 岐阜市大学西１丁目２５−４	136.733819	35.465692	136.73247	136.735168	35.464343	35.467041	193
'Herbarium Soutpansbergensis', 'Zeerust, South Africa'	NA	NA	NA	NA	NA	NA	NA	NA
'Herbier de l'universit de Limoges', 'Limoges, France'	NA	NA	NA	NA	NA	NA	NA	NA
'Herbier National de Guine (HNG)', 'Conakry, Guinea'	NA	NA	NA	NA	NA	NA	NA	NA
'Heywood and District Botanical Society', 'Heywood, United Kingdom'	NA	NA	NA	NA	NA	NA	NA	NA
'Highland Biological Recording Group', 'United Kingdom'	NA	NA	NA	NA	NA	NA	NA	NA
'Historical Museum - Karnobat', 'Karnobat, Bulgaria'	8400 Karnobat, Bulgaria	26.9803526	42.6511052	26.954654	26.9986037	42.634491	42.6783968	2801
'HMR/Romainville', 'France'	NA	NA	NA	NA	NA	NA	NA	NA
'Hokkaido Forest Products Research Institute', 'Japan'	NA	NA	NA	NA	NA	NA	NA	NA
'Hokkaido University, Laboratory of Marine Botany, Faculty of Fisheries', 'Hakodate, Japan'	NA	NA	NA	NA	NA	NA	NA	NA
'Hollinwood Botanists and Field Naturalists Society', 'Hollinwood, United Kingdom'	NA	NA	NA	NA	NA	NA	NA	NA
'Homestead, Everglades National Park', 'United States'	NA	NA	NA	NA	NA	NA	NA	NA
'Hong Kong Fisheries Research Station', 'Hong Kong SAR China'	NA	NA	NA	NA	NA	NA	NA	NA
'Hoogstraal Center for Tick Research', 'United States'	United States	-95.712891	37.09024	-124.39	-66.885417	18.7763	71.5388001	3452879
'Hope Department of Entomology', 'United Kingdom'	NA	NA	NA	NA	NA	NA	NA	NA
'Horn and Antler Museum', 'Bangkok, Thailand'	NA	NA	NA	NA	NA	NA	NA	NA
'Houghton Lake Wildlife Research Stationtural Resources Department', 'Houghton Lake Heights, United States'	NA	NA	NA	NA	NA	NA	NA	NA
'Howard W Manter Laboratory of Parasitology', 'United States'	1400 R St, Lincoln, NE 68588, USA	-96.7004763	40.8201966	-96.7018253	-96.6991273	40.8188476	40.8215456	188
'Hrvatski Narodni Zooloski Muzej', 'Croatia'	Demetrova ul. 1, 10000, Zagreb, Croatia	15.9723155	45.8170971	15.9709665	15.9736645	45.8157481	45.8184461	183
'Huanggang Teachers College', 'Huangzhou, China'	NA	NA	NA	NA	NA	NA	NA	NA
'Humboldt State University Vertebrate Museum', 'United States'	NA	NA	NA	NA	NA	NA	NA	NA
'Hungarian Academy of Sciences, Centre for Ecological Research, Institute of Ecology and Botany', 'Vcrtt, Hungary'	NA	NA	NA	NA	NA	NA	NA	NA
'Hungarian National Collection of Medical Bacteria', 'Hungary'	NA	NA	NA	NA	NA	NA	NA	NA
'Hygiene-Institut der Universitaet', 'Austria'	Kinderspitalgasse 15, 1090 Wien, Austria	16.3422429	48.2160539	16.3408939	16.3435919	48.2147049	48.2174029	180
'I D Papanin Institute for Biology of Inland Waters, Russian Academy of Sciences', 'Borok, Russia'	Leninsky Ave, 14, Moskva, Russia, 119991	37.5778246	55.7107897	37.5764756	37.5791736	55.7094407	55.7121387	172
'IAM Culture Collection, Center for Cellular and Molecular Research', 'Japan'	Japan	138.252924	36.204824	122.8554688	154.0031455	20.3585295	45.6412626	1685385
'Iberian and Macaronesian vegetation Information System', 'Barcelona, Spain'	Macaronesia	-22.471111	24.256667	-22.4871184	-22.4551036	24.2464937	24.2668395	1978
'Iberian and Macaronesian vegetation Information System', 'Barcelona, Spain'	Barcelona, Spain	2.1734035	41.3850639	2.0695258	2.2280099	41.320004	41.4695761	10437
'IC5Team', 'Barcelona, Spain'	Barcelona, Spain	2.1734035	41.3850639	2.0695258	2.2280099	41.320004	41.4695761	10437
'Icelandic Institute of Natural History, Akureyri Division', 'Akureyri, Iceland'	NA	NA	NA	NA	NA	NA	NA	NA
'ICO-Institut Catal d'Ornitologia (Catalan Ornithological Institute)', 'Barcelona, Spain'	NA	NA	NA	NA	NA	NA	NA	NA
'IDEAM', 'Bogot DC, Colombia'	NA	NA	NA	NA	NA	NA	NA	NA
'iDigBio', 'Gainesville, United States'	Gainesville, FL, USA	-82.3248262	29.6516344	-82.420516	-82.218976	29.601988	29.770553	10778
'ILS - Israeli Lepidopterists society', 'Haifa, Israel'	NA	NA	NA	NA	NA	NA	NA	NA
'IMBIV', 'Crdoba, Argentina'	NA	NA	NA	NA	NA	NA	NA	NA
'Imperial Fisheries Institute', 'Japan'	Japan	138.252924	36.204824	122.8554688	154.0031455	20.3585295	45.6412626	1685385
'Imperial Museum', 'Japan'	NA	NA	NA	NA	NA	NA	NA	NA
'INBAC', 'Luanda, Angola'	Luanda, Angola	13.2301756	-8.8146556	13.1580869	13.4101221	-8.9509107	-8.756154	17029
'Industrial Culture Collection', 'Mexico'	Mexico	-102.552784	23.634501	-118.6523001	-86.5887	14.3895	32.7186534	1859572
'Industrial Microbiology Dublin', 'Ireland'	Moyne Institute of Preventive Medicine, Dublin Southside, Dublin, Ireland	-6.2532002	53.3422362	-6.2545492	-6.2518512	53.3408872	53.3435852	175
'Industrial Yeasts Collection', 'Italy'	Italy	12.56738	41.87194	6.6267201	18.7975999	35.4897	47.092	762462
'INFA DE TOVE', 'Kpalim, Togo'	NA	NA	NA	NA	NA	NA	NA	NA
'INIA-Centro de Investigacin Forestal (CIFOR)', 'Madrid, Spain'	NA	NA	NA	NA	NA	NA	NA	NA
'INIFAT Fungus Collection', 'Cuba'	Cuba	-77.781167	21.521757	-85.1715001	-73.9545	19.6529001	23.3776001	444248
'INIREB', 'Mrida, Mexico'	NA	NA	NA	NA	NA	NA	NA	NA
'Inner Mongolia Center for Endemic Disease Control and Research', 'Mongolia'	Inner Mongolia, China	115.0594815	43.37822	97.1727626	126.0755854	37.4067795	53.337178	1372446
'Inner Mongolia Center for Endemic Disease Control and Research', 'Mongolia'	Mongolia	103.846656	46.862496	87.7344789	119.9315098	41.581833	52.148355	1301059
'Innvista', 'Canada'	Canada	-106.346771	56.130366	-142	-50	41.6765559	83.6381	3018372
'INRA Antilles-Guyane', 'France'	French Guiana	-53.125782	3.933889	-54.5544379	-51.6164491	2.109287	5.9548	256764
'INRES - Institute for Crop Science and Resource Conservation', 'Bonn, Germany'	Karlrobert-Kreiten-Straße 13, 53115 Bonn, Germany	7.088471	50.7237893	7.087122	7.08982	50.7224403	50.7251383	178
'INRES - Institute for Crop Science and Resource Conservation', 'Bonn, Germany'	Rheinische Friedrich-Wilhelms-Universität Bon, Friedrich-Ebert-Allee 144, 53113 Bonn, Germany	7.1291703	50.7052323	7.1278213	7.1305193	50.7038833	50.7065813	178
'Insect Collection, New South Wales Department of Agriculture', 'Australia'	New South Wales, Australia	146.921099	-31.2532183	140.9992793	159.1054441	-37.5052801	-28.15702	881385
'Insect Pathology Pathogen Collection', 'Australia'	Australia	133.775136	-25.274398	100.0911072	166.7429167	-54.8337658	-0.6911344	4283914
'Institue of Zoology of the Kazakh Academy of Sciences', 'Kazakhstan'	Shevchenko St 28, Almaty 050000, Kazakhstan	76.9531197	43.2458222	76.9517707	76.9544687	43.2444732	43.2471712	186
'Institut Congolais pour la Conservation de la Nature (ICCN)', 'Inkisi-Kisantu, Congo - Kinshasa'	NA	NA	NA	NA	NA	NA	NA	NA
'Institut d Economie Rurale', 'B Sikasso, Mali'	Sikasso, Mali	-5.6983979	11.3223834	-5.7206155	-5.634414	11.2896322	11.3538204	4360
'Institut d Economie Rurale, Centre Regional de Recherche Agronomique (CRRA)', 'Sikasso, Mali'	Sikasso, Mali	-5.6983979	11.3223834	-5.7206155	-5.634414	11.2896322	11.3538204	4360
'Institut d Elevage et de Medecine Veterinaire des Pays Tropicaux', 'Maisons-Alfort Cedex, France'	Maisons-Alfort, France	2.429443	48.801148	2.4159061	2.4639931	48.786595	48.816878	1900
'Institut de Biologia Evolutiva, (CSIC-UPF)', 'Spain'	NA	NA	NA	NA	NA	NA	NA	NA
'Institut de Paleontologie, Museum d Histoire naturelle', 'France'	2 Rue Buffon, 75005 Paris, France	2.3634848	48.8433108	2.3621358	2.3648338	48.8419618	48.8446598	180
'Institut de Paleontologie, Museum d Histoire naturelle', 'France'	57 Rue Cuvier, 75005 Paris, France	2.3562101	48.8443425	2.3548611	2.3575591	48.8429935	48.8456915	180
'Institut de Recherche Agronomique de Guine (IRAG)', 'Conakry, Guinea'	NA	NA	NA	NA	NA	NA	NA	NA
'Institut de Recherche Agronomique de Guinee', 'Srdou, Guinea'	NA	NA	NA	NA	NA	NA	NA	NA
'Institut de Recherches Entomologique de la Caribe', 'Guadeloupe'	NA	NA	NA	NA	NA	NA	NA	NA
